[
  {
    "id": "AWhefkWqR-bAtZoKZM96",
    "name": "Burger King - Welcome Rotonda",
    "latitude": 14.618641117851098,
    "longitude": 121.00221639110072
  },
  {
    "id": "2-CY2CR65JMEKDAX",
    "name": "Jollibee - G. Tuazon-Balic Balic",
    "latitude": 14.6068865,
    "longitude": 121.0030531
  },
  {
    "id": "2-C2DDLZNZVTV2TA",
    "name": "CoCo Fresh Tea & Juice - GrabKitchen (Sampaloc)",
    "latitude": 14.6143335,
    "longitude": 120.9925842
  },
  {
    "id": "2-CYV1LTCHKCNAGE",
    "name": "McDonald's - G Tuazon",
    "latitude": 14.606023292205293,
    "longitude": 121.00165648754836
  },
  {
    "id": "2-C2JECYXXKF2ATA",
    "name": "Happilee Korean Kitchen - GrabKitchen (Sampaloc) [Available for LONG-DISTANCE DELIVERY]",
    "latitude": 14.6143448,
    "longitude": 120.9925752
  },
  {
    "id": "2-CYMHN7DBA7C2NX",
    "name": "Chowking - QA Welcome Rotonda",
    "latitude": 14.6187955,
    "longitude": 121.0024192
  },
  {
    "id": "2-CZMHAYAGHFTBGE",
    "name": "Popeyes - SM San Lazaro [Available for LONG-DISTANCE DELIVERY]",
    "latitude": 14.617547810077665,
    "longitude": 120.9862562
  },
  {
    "id": "2-C2DWCZL1RATGTE",
    "name": "Starbucks - Mega One Building",
    "latitude": 14.617494243335472,
    "longitude": 121.00107900248236
  },
  {
    "id": "2-CZC1EZEYACBTCX",
    "name": "Jollibee - Raon",
    "latitude": 14.6007231,
    "longitude": 120.98439648
  },
  {
    "id": "2-CZMHAYAGMEC1SE",
    "name": "Popeyes - SM Manila [Available for LONG-DISTANCE DELIVERY]",
    "latitude": 14.5900564,
    "longitude": 120.983188625
  },
  {
    "id": "PHGFSTI000000zw",
    "name": "Angel's Pizza - Legarda [Available for LONG-DISTANCE DELIVERY]",
    "latitude": 14.599262918622557,
    "longitude": 120.9900343411054
  },
  {
    "id": "2-C2DBEX5CC4MEVN",
    "name": "McDonald's - Good Earth",
    "latitude": 14.59968074,
    "longitude": 120.9813703
  },
  {
    "id": "2-CYUZC8BTGJ51GJ",
    "name": "KFC - Sta Cruz",
    "latitude": 14.599968222336393,
    "longitude": 120.98002192
  },
  {
    "id": "PHGFSTI000001ow",
    "name": "J.Co Donuts & Coffee - Lucky Chinatown Mall [Available for LONG-DISTANCE DELIVERY]",
    "latitude": 14.6034786,
    "longitude": 120.97413444519042
  },
  {
    "id": "PHGFSTI0000018l",
    "name": "Wendy's - SM Manila [Available for LONG-DISTANCE DELIVERY]",
    "latitude": 14.5900528125,
    "longitude": 120.9835478
  },
  {
    "id": "AWj-WS3KfYWaYaQC48h5",
    "name": "S&R New York Style Pizza - SM Manila",
    "latitude": 14.5901269,
    "longitude": 120.98368076666667
  },
  {
    "id": "PHGFSTI00000145",
    "address": {
      "name": "Tokyo Tokyo - SM San Lazaro [Available for LONG-DISTANCE DELIVERY]"
    },
    "latlng": { "latitude": 14.6175713, "longitude": 120.98612815141676 }
  },
  {
    "id": "2-C2DDLZNZVTV2TA",
    "address": { "name": "CoCo Fresh Tea & Juice - GrabKitchen (Sampaloc)" },
    "latlng": { "latitude": 14.6143335, "longitude": 120.9925842 }
  },
  {
    "id": "PHGFSTI000000ym",
    "address": {
      "name": "Army Navy Burger + Burrito - UST Dapitan [Available for LONG-DISTANCE DELIVERY]"
    },
    "latlng": { "latitude": 14.6115019, "longitude": 120.9880575 }
  },
  {
    "id": "PHGFSTI000004jc",
    "address": {
      "name": "BonChon - SM City San Lazaro [Available for LONG-DISTANCE DELIVERY]"
    },
    "latlng": { "latitude": 14.6175894, "longitude": 120.98619020000001 }
  },
  {
    "id": "PHGFSTI0000019g",
    "address": {
      "name": "Classic Savory - SM San Lazaro [Available for LONG-DISTANCE DELIVERY]"
    },
    "latlng": { "latitude": 14.6176025, "longitude": 120.9863158 }
  },
  {
    "id": "PHGFSTI000001d0",
    "address": {
      "name": "S&R New York Style Pizza - Lucky Chinatown Mall [Available for LONG-DISTANCE DELIVERY]"
    },
    "latlng": {
      "latitude": 14.603515313353455,
      "longitude": 120.97409166395641
    }
  },
  {
    "id": "PHGFSTI0000029l",
    "address": {
      "name": "24 Chicken - P. Noval Dapitan [Available for LONG-DISTANCE DELIVERY]"
    },
    "latlng": { "latitude": 14.6097055, "longitude": 120.986619 }
  },
  {
    "id": "PHGFSTI000001ow",
    "address": {
      "name": "J.Co Donuts & Coffee - Lucky Chinatown Mall [Available for LONG-DISTANCE DELIVERY]"
    },
    "latlng": { "latitude": 14.6034786, "longitude": 120.97413444519042 }
  },
  {
    "id": "PHGFSTI00000145",
    "address": {
      "name": "Tokyo Tokyo - SM San Lazaro [Available for LONG-DISTANCE DELIVERY]"
    },
    "latlng": { "latitude": 14.6175713, "longitude": 120.98612815141676 }
  },
  {
    "id": "2-C2DDLZNZVTV2TA",
    "address": { "name": "CoCo Fresh Tea & Juice - GrabKitchen (Sampaloc)" },
    "latlng": { "latitude": 14.6143335, "longitude": 120.9925842 }
  },
  {
    "id": "PHGFSTI000000ym",
    "address": {
      "name": "Army Navy Burger + Burrito - UST Dapitan [Available for LONG-DISTANCE DELIVERY]"
    },
    "latlng": { "latitude": 14.6115019, "longitude": 120.9880575 }
  },
  {
    "id": "PHGFSTI000004jc",
    "address": {
      "name": "BonChon - SM City San Lazaro [Available for LONG-DISTANCE DELIVERY]"
    },
    "latlng": { "latitude": 14.6175894, "longitude": 120.98619020000001 }
  },
  {
    "id": "PHGFSTI0000019g",
    "address": {
      "name": "Classic Savory - SM San Lazaro [Available for LONG-DISTANCE DELIVERY]"
    },
    "latlng": { "latitude": 14.6176025, "longitude": 120.9863158 }
  },
  {
    "id": "PHGFSTI000001d0",
    "address": {
      "name": "S&R New York Style Pizza - Lucky Chinatown Mall [Available for LONG-DISTANCE DELIVERY]"
    },
    "latlng": {
      "latitude": 14.603515313353455,
      "longitude": 120.97409166395641
    }
  },
  {
    "id": "PHGFSTI0000029l",
    "address": {
      "name": "24 Chicken - P. Noval Dapitan [Available for LONG-DISTANCE DELIVERY]"
    },
    "latlng": { "latitude": 14.6097055, "longitude": 120.986619 }
  },
  {
    "id": "PHGFSTI000001ow",
    "address": {
      "name": "J.Co Donuts & Coffee - Lucky Chinatown Mall [Available for LONG-DISTANCE DELIVERY]"
    },
    "latlng": { "latitude": 14.6034786, "longitude": 120.97413444519042 }
  },
  {
    "id": "2-CYLXUABWCTX1WA",
    "address": {
      "name": "Yellow Cab Pizza - SM San Lazaro [Available for LONG-DISTANCE DELIVERY]"
    },
    "latlng": { "latitude": 14.6175634, "longitude": 120.98624878333334 }
  },
  {
    "id": "PHGFSTI000003ea",
    "address": {
      "name": "Subway - UST Campus [Available for LONG-DISTANCE DELIVERY]"
    },
    "latlng": { "latitude": 14.610537908571429, "longitude": 120.9902518 }
  },
  {
    "id": "2-CYX3ALEZHAAUHE",
    "address": {
      "name": "Lola Nena's Pichi Pichi - Espana Boulevard [Available for LONG-DISTANCE DELIVERY]"
    },
    "latlng": { "latitude": 14.60594795, "longitude": 120.9885574 }
  },
  {
    "id": "2-C2JECYXXKF2ATA",
    "address": {
      "name": "Happilee Korean Kitchen - GrabKitchen (Sampaloc) [Available for LONG-DISTANCE DELIVERY]"
    },
    "latlng": { "latitude": 14.6143448, "longitude": 120.9925752 }
  },
  {
    "id": "2-CYJ3JKLXKCNVG2",
    "address": {
      "name": "Buffalo's Wings N' Things - SM San Lazaro [Available for LONG-DISTANCE DELIVERY]"
    },
    "latlng": { "latitude": 14.6177683, "longitude": 120.98586350679396 }
  },
  {
    "id": "2-CYKZLA4TT3JVTA",
    "address": {
      "name": "Max's Restaurant - SM San Lazaro [Available for LONG-DISTANCE DELIVERY]"
    },
    "latlng": { "latitude": 14.6176326, "longitude": 120.98607781818181 }
  },
  {
    "id": "2-C2BFLTLFEU21GE",
    "address": {
      "name": "Cara Mia Cakes & Gelato - SM San Lazaro [Available for LONG-DISTANCE DELIVERY]"
    },
    "latlng": { "latitude": 14.6186689, "longitude": 120.98527427999998 }
  },
  {
    "id": "2-C2LHPF4FGTMHL6",
    "address": {
      "name": "The Aristocrat Restaurant - SM San Lazaro [Available for LONG-DISTANCE DELIVERY]"
    },
    "latlng": { "latitude": 14.617857, "longitude": 120.985417 }
  },
  {
    "id": "PHGFSTI00000145",
    "address": {
      "name": "Tokyo Tokyo - SM San Lazaro [Available for LONG-DISTANCE DELIVERY]"
    },
    "latlng": { "latitude": 14.6175713, "longitude": 120.98612815141676 }
  },
  {
    "id": "2-C2DDLZNZVTV2TA",
    "address": { "name": "CoCo Fresh Tea & Juice - GrabKitchen (Sampaloc)" },
    "latlng": { "latitude": 14.6143335, "longitude": 120.9925842 }
  },
  {
    "id": "PHGFSTI000000ym",
    "address": {
      "name": "Army Navy Burger + Burrito - UST Dapitan [Available for LONG-DISTANCE DELIVERY]"
    },
    "latlng": { "latitude": 14.6115019, "longitude": 120.9880575 }
  },
  {
    "id": "PHGFSTI000004jc",
    "address": {
      "name": "BonChon - SM City San Lazaro [Available for LONG-DISTANCE DELIVERY]"
    },
    "latlng": { "latitude": 14.6175894, "longitude": 120.98619020000001 }
  },
  {
    "id": "PHGFSTI0000019g",
    "address": {
      "name": "Classic Savory - SM San Lazaro [Available for LONG-DISTANCE DELIVERY]"
    },
    "latlng": { "latitude": 14.6176025, "longitude": 120.9863158 }
  },
  {
    "id": "PHGFSTI000001d0",
    "address": {
      "name": "S&R New York Style Pizza - Lucky Chinatown Mall [Available for LONG-DISTANCE DELIVERY]"
    },
    "latlng": {
      "latitude": 14.603515313353455,
      "longitude": 120.97409166395641
    }
  },
  {
    "id": "PHGFSTI0000029l",
    "address": {
      "name": "24 Chicken - P. Noval Dapitan [Available for LONG-DISTANCE DELIVERY]"
    },
    "latlng": { "latitude": 14.6097055, "longitude": 120.986619 }
  },
  {
    "id": "PHGFSTI000001ow",
    "address": {
      "name": "J.Co Donuts & Coffee - Lucky Chinatown Mall [Available for LONG-DISTANCE DELIVERY]"
    },
    "latlng": { "latitude": 14.6034786, "longitude": 120.97413444519042 }
  },
  {
    "id": "2-CYLXUABWCTX1WA",
    "address": {
      "name": "Yellow Cab Pizza - SM San Lazaro [Available for LONG-DISTANCE DELIVERY]"
    },
    "latlng": { "latitude": 14.6175634, "longitude": 120.98624878333334 }
  },
  {
    "id": "PHGFSTI000003ea",
    "address": {
      "name": "Subway - UST Campus [Available for LONG-DISTANCE DELIVERY]"
    },
    "latlng": { "latitude": 14.610537908571429, "longitude": 120.9902518 }
  },
  {
    "id": "2-CYX3ALEZHAAUHE",
    "address": {
      "name": "Lola Nena's Pichi Pichi - Espana Boulevard [Available for LONG-DISTANCE DELIVERY]"
    },
    "latlng": { "latitude": 14.60594795, "longitude": 120.9885574 }
  },
  {
    "id": "2-C2JECYXXKF2ATA",
    "address": {
      "name": "Happilee Korean Kitchen - GrabKitchen (Sampaloc) [Available for LONG-DISTANCE DELIVERY]"
    },
    "latlng": { "latitude": 14.6143448, "longitude": 120.9925752 }
  },
  {
    "id": "2-CYJ3JKLXKCNVG2",
    "address": {
      "name": "Buffalo's Wings N' Things - SM San Lazaro [Available for LONG-DISTANCE DELIVERY]"
    },
    "latlng": { "latitude": 14.6177683, "longitude": 120.98586350679396 }
  },
  {
    "id": "2-CYKZLA4TT3JVTA",
    "address": {
      "name": "Max's Restaurant - SM San Lazaro [Available for LONG-DISTANCE DELIVERY]"
    },
    "latlng": { "latitude": 14.6176326, "longitude": 120.98607781818181 }
  },
  {
    "id": "2-C2BFLTLFEU21GE",
    "address": {
      "name": "Cara Mia Cakes & Gelato - SM San Lazaro [Available for LONG-DISTANCE DELIVERY]"
    },
    "latlng": { "latitude": 14.6186689, "longitude": 120.98527427999998 }
  },
  {
    "id": "2-C2LHPF4FGTMHL6",
    "address": {
      "name": "The Aristocrat Restaurant - SM San Lazaro [Available for LONG-DISTANCE DELIVERY]"
    },
    "latlng": { "latitude": 14.617857, "longitude": 120.985417 }
  },
  {
    "id": "2-C23ZNBUFGADZTN",
    "address": { "name": "Dadudz Unli Wings - St. Thomas Square" },
    "latlng": { "latitude": 14.60562305, "longitude": 120.988576 }
  },
  {
    "id": "2-C2U2WGKAVKXCTE",
    "address": { "name": "Conti's Bakeshop and Restaurant - SM San Lazaro" },
    "latlng": { "latitude": 14.61780108, "longitude": 120.9853594 }
  },
  {
    "id": "2-C2AYFBLWEA4ZRA",
    "address": {
      "name": "Conti's Bakeshop - Lucky Chinatown Mall [Available for LONG-DISTANCE DELIVERY]"
    },
    "latlng": { "latitude": 14.60304336978875, "longitude": 120.97393467043344 }
  },
  {
    "id": "2-C2WFT2UYEUBDCX",
    "address": {
      "name": "Caution Bistro - Manila [Available for LONG-DISTANCE DELIVERY]"
    },
    "latlng": { "latitude": 14.614305, "longitude": 120.990737 }
  },
  {
    "id": "2-C2XERKUYFBEWEA",
    "address": {
      "name": "Big Al's Cookie Jar - GrabKitchen (Sampaloc) [Available for LONG-DISTANCE DELIVERY]"
    },
    "latlng": { "latitude": 14.6143335, "longitude": 120.9925847 }
  },
  {
    "id": "2-CY3VAZCEDGNEVA",
    "address": {
      "name": "Pepper Lunch Express - Lucky Chinatown [Available for LONG-DISTANCE DELIVERY]"
    },
    "latlng": { "latitude": 14.6029055, "longitude": 120.9738317 }
  },
  {
    "id": "2-CY5HE8BXA222E2",
    "address": {
      "name": "Hawker Chan - SM San Lazaro [Available for LONG-DISTANCE DELIVERY]"
    },
    "latlng": { "latitude": 14.6188394, "longitude": 120.9853949 }
  },
  {
    "id": "2-CZNVAN6KLBT1L2",
    "address": { "name": "Starbucks - Metropolitan Medical Center" },
    "latlng": { "latitude": 14.6095408, "longitude": 120.9786337 }
  },
  {
    "id": "PHGFSTI00000145",
    "address": {
      "name": "Tokyo Tokyo - SM San Lazaro [Available for LONG-DISTANCE DELIVERY]"
    },
    "latlng": { "latitude": 14.6175713, "longitude": 120.98612815141676 }
  },
  {
    "id": "2-C2DDLZNZVTV2TA",
    "address": { "name": "CoCo Fresh Tea & Juice - GrabKitchen (Sampaloc)" },
    "latlng": { "latitude": 14.6143335, "longitude": 120.9925842 }
  },
  {
    "id": "PHGFSTI000000ym",
    "address": {
      "name": "Army Navy Burger + Burrito - UST Dapitan [Available for LONG-DISTANCE DELIVERY]"
    },
    "latlng": { "latitude": 14.6115019, "longitude": 120.9880575 }
  },
  {
    "id": "PHGFSTI000004jc",
    "address": {
      "name": "BonChon - SM City San Lazaro [Available for LONG-DISTANCE DELIVERY]"
    },
    "latlng": { "latitude": 14.6175894, "longitude": 120.98619020000001 }
  },
  {
    "id": "PHGFSTI0000019g",
    "address": {
      "name": "Classic Savory - SM San Lazaro [Available for LONG-DISTANCE DELIVERY]"
    },
    "latlng": { "latitude": 14.6176025, "longitude": 120.9863158 }
  },
  {
    "id": "PHGFSTI000001d0",
    "address": {
      "name": "S&R New York Style Pizza - Lucky Chinatown Mall [Available for LONG-DISTANCE DELIVERY]"
    },
    "latlng": {
      "latitude": 14.603515313353455,
      "longitude": 120.97409166395641
    }
  },
  {
    "id": "PHGFSTI0000029l",
    "address": {
      "name": "24 Chicken - P. Noval Dapitan [Available for LONG-DISTANCE DELIVERY]"
    },
    "latlng": { "latitude": 14.6097055, "longitude": 120.986619 }
  },
  {
    "id": "PHGFSTI000001ow",
    "address": {
      "name": "J.Co Donuts & Coffee - Lucky Chinatown Mall [Available for LONG-DISTANCE DELIVERY]"
    },
    "latlng": { "latitude": 14.6034786, "longitude": 120.97413444519042 }
  },
  {
    "id": "2-CYLXUABWCTX1WA",
    "address": {
      "name": "Yellow Cab Pizza - SM San Lazaro [Available for LONG-DISTANCE DELIVERY]"
    },
    "latlng": { "latitude": 14.6175634, "longitude": 120.98624878333334 }
  },
  {
    "id": "PHGFSTI000003ea",
    "address": {
      "name": "Subway - UST Campus [Available for LONG-DISTANCE DELIVERY]"
    },
    "latlng": { "latitude": 14.610537908571429, "longitude": 120.9902518 }
  },
  {
    "id": "2-CYX3ALEZHAAUHE",
    "address": {
      "name": "Lola Nena's Pichi Pichi - Espana Boulevard [Available for LONG-DISTANCE DELIVERY]"
    },
    "latlng": { "latitude": 14.60594795, "longitude": 120.9885574 }
  },
  {
    "id": "2-C2JECYXXKF2ATA",
    "address": {
      "name": "Happilee Korean Kitchen - GrabKitchen (Sampaloc) [Available for LONG-DISTANCE DELIVERY]"
    },
    "latlng": { "latitude": 14.6143448, "longitude": 120.9925752 }
  },
  {
    "id": "2-CYJ3JKLXKCNVG2",
    "address": {
      "name": "Buffalo's Wings N' Things - SM San Lazaro [Available for LONG-DISTANCE DELIVERY]"
    },
    "latlng": { "latitude": 14.6177683, "longitude": 120.98586350679396 }
  },
  {
    "id": "2-CYKZLA4TT3JVTA",
    "address": {
      "name": "Max's Restaurant - SM San Lazaro [Available for LONG-DISTANCE DELIVERY]"
    },
    "latlng": { "latitude": 14.6176326, "longitude": 120.98607781818181 }
  },
  {
    "id": "2-C2BFLTLFEU21GE",
    "address": {
      "name": "Cara Mia Cakes & Gelato - SM San Lazaro [Available for LONG-DISTANCE DELIVERY]"
    },
    "latlng": { "latitude": 14.6186689, "longitude": 120.98527427999998 }
  },
  {
    "id": "2-C2LHPF4FGTMHL6",
    "address": {
      "name": "The Aristocrat Restaurant - SM San Lazaro [Available for LONG-DISTANCE DELIVERY]"
    },
    "latlng": { "latitude": 14.617857, "longitude": 120.985417 }
  },
  {
    "id": "2-C23ZNBUFGADZTN",
    "address": { "name": "Dadudz Unli Wings - St. Thomas Square" },
    "latlng": { "latitude": 14.60562305, "longitude": 120.988576 }
  },
  {
    "id": "2-C2U2WGKAVKXCTE",
    "address": { "name": "Conti's Bakeshop and Restaurant - SM San Lazaro" },
    "latlng": { "latitude": 14.61780108, "longitude": 120.9853594 }
  },
  {
    "id": "2-C2AYFBLWEA4ZRA",
    "address": {
      "name": "Conti's Bakeshop - Lucky Chinatown Mall [Available for LONG-DISTANCE DELIVERY]"
    },
    "latlng": { "latitude": 14.60304336978875, "longitude": 120.97393467043344 }
  },
  {
    "id": "2-C2WFT2UYEUBDCX",
    "address": {
      "name": "Caution Bistro - Manila [Available for LONG-DISTANCE DELIVERY]"
    },
    "latlng": { "latitude": 14.614305, "longitude": 120.990737 }
  },
  {
    "id": "2-C2XERKUYFBEWEA",
    "address": {
      "name": "Big Al's Cookie Jar - GrabKitchen (Sampaloc) [Available for LONG-DISTANCE DELIVERY]"
    },
    "latlng": { "latitude": 14.6143335, "longitude": 120.9925847 }
  },
  {
    "id": "2-CY3VAZCEDGNEVA",
    "address": {
      "name": "Pepper Lunch Express - Lucky Chinatown [Available for LONG-DISTANCE DELIVERY]"
    },
    "latlng": { "latitude": 14.6029055, "longitude": 120.9738317 }
  },
  {
    "id": "2-CY5HE8BXA222E2",
    "address": {
      "name": "Hawker Chan - SM San Lazaro [Available for LONG-DISTANCE DELIVERY]"
    },
    "latlng": { "latitude": 14.6188394, "longitude": 120.9853949 }
  },
  {
    "id": "2-CZNVAN6KLBT1L2",
    "address": { "name": "Starbucks - Metropolitan Medical Center" },
    "latlng": { "latitude": 14.6095408, "longitude": 120.9786337 }
  },
  {
    "id": "AWhenmIUkk5cOZVWu4Y-",
    "address": { "name": "Chooks To Go - Laon-Laan Street Sampaloc" },
    "latlng": { "latitude": 14.61317095, "longitude": 120.9879167 }
  },
  {
    "id": "PHGFSTI000002cu",
    "address": {
      "name": "Al Jograts - V. Concepcion [Available for LONG-DISTANCE DELIVERY]"
    },
    "latlng": { "latitude": 14.6123178, "longitude": 120.9880759076923 }
  },
  {
    "id": "2-C2J3BF3DSA2YRX",
    "address": {
      "name": "Boodle Inasal x Happy Thirstday - Sampaloc [Available for LONG-DISTANCE DELIVERY]"
    },
    "latlng": { "latitude": 14.6071574, "longitude": 120.9876869 }
  },
  {
    "id": "2-C2K3TBCTV7AHCX",
    "address": {
      "name": "Banapple - SM San Lazaro [Available for LONG-DISTANCE DELIVERY]"
    },
    "latlng": { "latitude": 14.618972, "longitude": 120.985263 }
  },
  {
    "id": "2-C2JTEVCUFFAYA6",
    "address": {
      "name": "GrabKitchen - Mix and Match (Sampaloc) [Available for LONG-DISTANCE DELIVERY]"
    },
    "latlng": { "latitude": 14.6143302, "longitude": 120.9925804 }
  },
  {
    "id": "2-CZN2FAW1TRJ2N2",
    "address": {
      "name": "Cha Tuk Chak - Cloud Kitchen San Lazaro [Available for LONG-DISTANCE DELIVERY]"
    },
    "latlng": {
      "latitude": 14.619669790732132,
      "longitude": 120.98555428891945
    }
  },
  {
    "id": "PHGFSTI0000019k",
    "address": {
      "name": "David's Tea House - Sta. Cruz [Available for LONG-DISTANCE DELIVERY]"
    },
    "latlng": { "latitude": 14.60081561, "longitude": 120.9792872 }
  },
  {
    "id": "2-CYT1AKN3KFN1V2",
    "address": { "name": "Shakey's Pizza - SM San Lazaro" },
    "latlng": { "latitude": 14.6184894, "longitude": 120.9852252 }
  },
  {
    "id": "PHGFSTI00000145",
    "address": {
      "name": "Tokyo Tokyo - SM San Lazaro [Available for LONG-DISTANCE DELIVERY]"
    },
    "latlng": { "latitude": 14.6175713, "longitude": 120.98612815141676 }
  },
  {
    "id": "2-C2DDLZNZVTV2TA",
    "address": { "name": "CoCo Fresh Tea & Juice - GrabKitchen (Sampaloc)" },
    "latlng": { "latitude": 14.6143335, "longitude": 120.9925842 }
  },
  {
    "id": "PHGFSTI000000ym",
    "address": {
      "name": "Army Navy Burger + Burrito - UST Dapitan [Available for LONG-DISTANCE DELIVERY]"
    },
    "latlng": { "latitude": 14.6115019, "longitude": 120.9880575 }
  },
  {
    "id": "PHGFSTI000004jc",
    "address": {
      "name": "BonChon - SM City San Lazaro [Available for LONG-DISTANCE DELIVERY]"
    },
    "latlng": { "latitude": 14.6175894, "longitude": 120.98619020000001 }
  },
  {
    "id": "PHGFSTI0000019g",
    "address": {
      "name": "Classic Savory - SM San Lazaro [Available for LONG-DISTANCE DELIVERY]"
    },
    "latlng": { "latitude": 14.6176025, "longitude": 120.9863158 }
  },
  {
    "id": "PHGFSTI000001d0",
    "address": {
      "name": "S&R New York Style Pizza - Lucky Chinatown Mall [Available for LONG-DISTANCE DELIVERY]"
    },
    "latlng": {
      "latitude": 14.603515313353455,
      "longitude": 120.97409166395641
    }
  },
  {
    "id": "PHGFSTI0000029l",
    "address": {
      "name": "24 Chicken - P. Noval Dapitan [Available for LONG-DISTANCE DELIVERY]"
    },
    "latlng": { "latitude": 14.6097055, "longitude": 120.986619 }
  },
  {
    "id": "PHGFSTI000001ow",
    "address": {
      "name": "J.Co Donuts & Coffee - Lucky Chinatown Mall [Available for LONG-DISTANCE DELIVERY]"
    },
    "latlng": { "latitude": 14.6034786, "longitude": 120.97413444519042 }
  },
  {
    "id": "2-CYLXUABWCTX1WA",
    "address": {
      "name": "Yellow Cab Pizza - SM San Lazaro [Available for LONG-DISTANCE DELIVERY]"
    },
    "latlng": { "latitude": 14.6175634, "longitude": 120.98624878333334 }
  },
  {
    "id": "PHGFSTI000003ea",
    "address": {
      "name": "Subway - UST Campus [Available for LONG-DISTANCE DELIVERY]"
    },
    "latlng": { "latitude": 14.610537908571429, "longitude": 120.9902518 }
  },
  {
    "id": "2-CYX3ALEZHAAUHE",
    "address": {
      "name": "Lola Nena's Pichi Pichi - Espana Boulevard [Available for LONG-DISTANCE DELIVERY]"
    },
    "latlng": { "latitude": 14.60594795, "longitude": 120.9885574 }
  },
  {
    "id": "2-C2JECYXXKF2ATA",
    "address": {
      "name": "Happilee Korean Kitchen - GrabKitchen (Sampaloc) [Available for LONG-DISTANCE DELIVERY]"
    },
    "latlng": { "latitude": 14.6143448, "longitude": 120.9925752 }
  },
  {
    "id": "2-CYJ3JKLXKCNVG2",
    "address": {
      "name": "Buffalo's Wings N' Things - SM San Lazaro [Available for LONG-DISTANCE DELIVERY]"
    },
    "latlng": { "latitude": 14.6177683, "longitude": 120.98586350679396 }
  },
  {
    "id": "2-CYKZLA4TT3JVTA",
    "address": {
      "name": "Max's Restaurant - SM San Lazaro [Available for LONG-DISTANCE DELIVERY]"
    },
    "latlng": { "latitude": 14.6176326, "longitude": 120.98607781818181 }
  },
  {
    "id": "2-C2BFLTLFEU21GE",
    "address": {
      "name": "Cara Mia Cakes & Gelato - SM San Lazaro [Available for LONG-DISTANCE DELIVERY]"
    },
    "latlng": { "latitude": 14.6186689, "longitude": 120.98527427999998 }
  },
  {
    "id": "2-C2LHPF4FGTMHL6",
    "address": {
      "name": "The Aristocrat Restaurant - SM San Lazaro [Available for LONG-DISTANCE DELIVERY]"
    },
    "latlng": { "latitude": 14.617857, "longitude": 120.985417 }
  },
  {
    "id": "2-C23ZNBUFGADZTN",
    "address": { "name": "Dadudz Unli Wings - St. Thomas Square" },
    "latlng": { "latitude": 14.60562305, "longitude": 120.988576 }
  },
  {
    "id": "2-C2U2WGKAVKXCTE",
    "address": { "name": "Conti's Bakeshop and Restaurant - SM San Lazaro" },
    "latlng": { "latitude": 14.61780108, "longitude": 120.9853594 }
  },
  {
    "id": "2-C2AYFBLWEA4ZRA",
    "address": {
      "name": "Conti's Bakeshop - Lucky Chinatown Mall [Available for LONG-DISTANCE DELIVERY]"
    },
    "latlng": { "latitude": 14.60304336978875, "longitude": 120.97393467043344 }
  },
  {
    "id": "2-C2WFT2UYEUBDCX",
    "address": {
      "name": "Caution Bistro - Manila [Available for LONG-DISTANCE DELIVERY]"
    },
    "latlng": { "latitude": 14.614305, "longitude": 120.990737 }
  },
  {
    "id": "2-C2XERKUYFBEWEA",
    "address": {
      "name": "Big Al's Cookie Jar - GrabKitchen (Sampaloc) [Available for LONG-DISTANCE DELIVERY]"
    },
    "latlng": { "latitude": 14.6143335, "longitude": 120.9925847 }
  },
  {
    "id": "2-CY3VAZCEDGNEVA",
    "address": {
      "name": "Pepper Lunch Express - Lucky Chinatown [Available for LONG-DISTANCE DELIVERY]"
    },
    "latlng": { "latitude": 14.6029055, "longitude": 120.9738317 }
  },
  {
    "id": "2-CY5HE8BXA222E2",
    "address": {
      "name": "Hawker Chan - SM San Lazaro [Available for LONG-DISTANCE DELIVERY]"
    },
    "latlng": { "latitude": 14.6188394, "longitude": 120.9853949 }
  },
  {
    "id": "2-CZNVAN6KLBT1L2",
    "address": { "name": "Starbucks - Metropolitan Medical Center" },
    "latlng": { "latitude": 14.6095408, "longitude": 120.9786337 }
  },
  {
    "id": "AWhenmIUkk5cOZVWu4Y-",
    "address": { "name": "Chooks To Go - Laon-Laan Street Sampaloc" },
    "latlng": { "latitude": 14.61317095, "longitude": 120.9879167 }
  },
  {
    "id": "PHGFSTI000002cu",
    "address": {
      "name": "Al Jograts - V. Concepcion [Available for LONG-DISTANCE DELIVERY]"
    },
    "latlng": { "latitude": 14.6123178, "longitude": 120.9880759076923 }
  },
  {
    "id": "2-C2J3BF3DSA2YRX",
    "address": {
      "name": "Boodle Inasal x Happy Thirstday - Sampaloc [Available for LONG-DISTANCE DELIVERY]"
    },
    "latlng": { "latitude": 14.6071574, "longitude": 120.9876869 }
  },
  {
    "id": "2-C2K3TBCTV7AHCX",
    "address": {
      "name": "Banapple - SM San Lazaro [Available for LONG-DISTANCE DELIVERY]"
    },
    "latlng": { "latitude": 14.618972, "longitude": 120.985263 }
  },
  {
    "id": "2-C2JTEVCUFFAYA6",
    "address": {
      "name": "GrabKitchen - Mix and Match (Sampaloc) [Available for LONG-DISTANCE DELIVERY]"
    },
    "latlng": { "latitude": 14.6143302, "longitude": 120.9925804 }
  },
  {
    "id": "2-CZN2FAW1TRJ2N2",
    "address": {
      "name": "Cha Tuk Chak - Cloud Kitchen San Lazaro [Available for LONG-DISTANCE DELIVERY]"
    },
    "latlng": {
      "latitude": 14.619669790732132,
      "longitude": 120.98555428891945
    }
  },
  {
    "id": "PHGFSTI0000019k",
    "address": {
      "name": "David's Tea House - Sta. Cruz [Available for LONG-DISTANCE DELIVERY]"
    },
    "latlng": { "latitude": 14.60081561, "longitude": 120.9792872 }
  },
  {
    "id": "2-CYT1AKN3KFN1V2",
    "address": { "name": "Shakey's Pizza - SM San Lazaro" },
    "latlng": { "latitude": 14.6184894, "longitude": 120.9852252 }
  },
  {
    "id": "2-CZM3VGKZKCLDTE",
    "address": {
      "name": "Red Table - SM San Lazaro [Available for LONG-DISTANCE DELIVERY]"
    },
    "latlng": { "latitude": 14.6176851, "longitude": 120.986066675 }
  },
  {
    "id": "PHGFSTI0000017p",
    "address": {
      "name": "Kuya J's Restaurant - SM San Lazaro [Available for LONG-DISTANCE DELIVERY]"
    },
    "latlng": { "latitude": 14.618717660000002, "longitude": 120.985206 }
  },
  {
    "id": "2-C2JEE7UARFJYEN",
    "address": {
      "name": "Mister Kabab - GrabKitchen (Sampaloc) [Available for LONG-DISTANCE DELIVERY]"
    },
    "latlng": { "latitude": 14.6143335, "longitude": 120.9925847 }
  },
  {
    "id": "2-C23URRLCNJUTVT",
    "address": {
      "name": "Tutong's Laksa - Sampaloc [Available for LONG-DISTANCE DELIVERY]"
    },
    "latlng": { "latitude": 14.6097879, "longitude": 120.9862508 }
  },
  {
    "id": "2-C2MTUBWWRNKEAN",
    "address": {
      "name": "Wai Ying Fastfood - Tondo [Available for LONG-DISTANCE DELIVERY]"
    },
    "latlng": { "latitude": 14.6072429, "longitude": 120.978377 }
  },
  {
    "id": "PHGFSTI000004mr",
    "address": { "name": "Goldilocks - SM San Lazaro Foodshop" },
    "latlng": { "latitude": 14.6183767, "longitude": 120.985192 }
  },
  {
    "id": "PHGFSTI000001p1",
    "address": {
      "name": "Pho Hoa Vietnamese Noodle House - Lucky Chinatown Mall [Available for LONG-DISTANCE DELIVERY]"
    },
    "latlng": { "latitude": 14.6034077, "longitude": 120.9734002 }
  },
  {
    "id": "2-CYWKTUCFGY6EBE",
    "address": { "name": "Sisig Hooray - SM San Lazaro" },
    "latlng": { "latitude": 14.6181186, "longitude": 120.98551573 }
  },
  {
    "id": "PHGFSTI00000145",
    "address": {
      "name": "Tokyo Tokyo - SM San Lazaro [Available for LONG-DISTANCE DELIVERY]"
    },
    "latlng": { "latitude": 14.6175713, "longitude": 120.98612815141676 }
  },
  {
    "id": "2-C2DDLZNZVTV2TA",
    "address": { "name": "CoCo Fresh Tea & Juice - GrabKitchen (Sampaloc)" },
    "latlng": { "latitude": 14.6143335, "longitude": 120.9925842 }
  },
  {
    "id": "PHGFSTI000000ym",
    "address": {
      "name": "Army Navy Burger + Burrito - UST Dapitan [Available for LONG-DISTANCE DELIVERY]"
    },
    "latlng": { "latitude": 14.6115019, "longitude": 120.9880575 }
  },
  {
    "id": "PHGFSTI000004jc",
    "address": {
      "name": "BonChon - SM City San Lazaro [Available for LONG-DISTANCE DELIVERY]"
    },
    "latlng": { "latitude": 14.6175894, "longitude": 120.98619020000001 }
  },
  {
    "id": "PHGFSTI0000019g",
    "address": {
      "name": "Classic Savory - SM San Lazaro [Available for LONG-DISTANCE DELIVERY]"
    },
    "latlng": { "latitude": 14.6176025, "longitude": 120.9863158 }
  },
  {
    "id": "PHGFSTI000001d0",
    "address": {
      "name": "S&R New York Style Pizza - Lucky Chinatown Mall [Available for LONG-DISTANCE DELIVERY]"
    },
    "latlng": {
      "latitude": 14.603515313353455,
      "longitude": 120.97409166395641
    }
  },
  {
    "id": "PHGFSTI0000029l",
    "address": {
      "name": "24 Chicken - P. Noval Dapitan [Available for LONG-DISTANCE DELIVERY]"
    },
    "latlng": { "latitude": 14.6097055, "longitude": 120.986619 }
  },
  {
    "id": "PHGFSTI000001ow",
    "address": {
      "name": "J.Co Donuts & Coffee - Lucky Chinatown Mall [Available for LONG-DISTANCE DELIVERY]"
    },
    "latlng": { "latitude": 14.6034786, "longitude": 120.97413444519042 }
  },
  {
    "id": "2-CYLXUABWCTX1WA",
    "address": {
      "name": "Yellow Cab Pizza - SM San Lazaro [Available for LONG-DISTANCE DELIVERY]"
    },
    "latlng": { "latitude": 14.6175634, "longitude": 120.98624878333334 }
  },
  {
    "id": "PHGFSTI000003ea",
    "address": {
      "name": "Subway - UST Campus [Available for LONG-DISTANCE DELIVERY]"
    },
    "latlng": { "latitude": 14.610537908571429, "longitude": 120.9902518 }
  },
  {
    "id": "2-CYX3ALEZHAAUHE",
    "address": {
      "name": "Lola Nena's Pichi Pichi - Espana Boulevard [Available for LONG-DISTANCE DELIVERY]"
    },
    "latlng": { "latitude": 14.60594795, "longitude": 120.9885574 }
  },
  {
    "id": "2-C2JECYXXKF2ATA",
    "address": {
      "name": "Happilee Korean Kitchen - GrabKitchen (Sampaloc) [Available for LONG-DISTANCE DELIVERY]"
    },
    "latlng": { "latitude": 14.6143448, "longitude": 120.9925752 }
  },
  {
    "id": "2-CYJ3JKLXKCNVG2",
    "address": {
      "name": "Buffalo's Wings N' Things - SM San Lazaro [Available for LONG-DISTANCE DELIVERY]"
    },
    "latlng": { "latitude": 14.6177683, "longitude": 120.98586350679396 }
  },
  {
    "id": "2-CYKZLA4TT3JVTA",
    "address": {
      "name": "Max's Restaurant - SM San Lazaro [Available for LONG-DISTANCE DELIVERY]"
    },
    "latlng": { "latitude": 14.6176326, "longitude": 120.98607781818181 }
  },
  {
    "id": "2-C2BFLTLFEU21GE",
    "address": {
      "name": "Cara Mia Cakes & Gelato - SM San Lazaro [Available for LONG-DISTANCE DELIVERY]"
    },
    "latlng": { "latitude": 14.6186689, "longitude": 120.98527427999998 }
  },
  {
    "id": "2-C2LHPF4FGTMHL6",
    "address": {
      "name": "The Aristocrat Restaurant - SM San Lazaro [Available for LONG-DISTANCE DELIVERY]"
    },
    "latlng": { "latitude": 14.617857, "longitude": 120.985417 }
  },
  {
    "id": "2-C23ZNBUFGADZTN",
    "address": { "name": "Dadudz Unli Wings - St. Thomas Square" },
    "latlng": { "latitude": 14.60562305, "longitude": 120.988576 }
  },
  {
    "id": "2-C2U2WGKAVKXCTE",
    "address": { "name": "Conti's Bakeshop and Restaurant - SM San Lazaro" },
    "latlng": { "latitude": 14.61780108, "longitude": 120.9853594 }
  },
  {
    "id": "2-C2AYFBLWEA4ZRA",
    "address": {
      "name": "Conti's Bakeshop - Lucky Chinatown Mall [Available for LONG-DISTANCE DELIVERY]"
    },
    "latlng": { "latitude": 14.60304336978875, "longitude": 120.97393467043344 }
  },
  {
    "id": "2-C2WFT2UYEUBDCX",
    "address": {
      "name": "Caution Bistro - Manila [Available for LONG-DISTANCE DELIVERY]"
    },
    "latlng": { "latitude": 14.614305, "longitude": 120.990737 }
  },
  {
    "id": "2-C2XERKUYFBEWEA",
    "address": {
      "name": "Big Al's Cookie Jar - GrabKitchen (Sampaloc) [Available for LONG-DISTANCE DELIVERY]"
    },
    "latlng": { "latitude": 14.6143335, "longitude": 120.9925847 }
  },
  {
    "id": "2-CY3VAZCEDGNEVA",
    "address": {
      "name": "Pepper Lunch Express - Lucky Chinatown [Available for LONG-DISTANCE DELIVERY]"
    },
    "latlng": { "latitude": 14.6029055, "longitude": 120.9738317 }
  },
  {
    "id": "2-CY5HE8BXA222E2",
    "address": {
      "name": "Hawker Chan - SM San Lazaro [Available for LONG-DISTANCE DELIVERY]"
    },
    "latlng": { "latitude": 14.6188394, "longitude": 120.9853949 }
  },
  {
    "id": "2-CZNVAN6KLBT1L2",
    "address": { "name": "Starbucks - Metropolitan Medical Center" },
    "latlng": { "latitude": 14.6095408, "longitude": 120.9786337 }
  },
  {
    "id": "AWhenmIUkk5cOZVWu4Y-",
    "address": { "name": "Chooks To Go - Laon-Laan Street Sampaloc" },
    "latlng": { "latitude": 14.61317095, "longitude": 120.9879167 }
  },
  {
    "id": "PHGFSTI000002cu",
    "address": {
      "name": "Al Jograts - V. Concepcion [Available for LONG-DISTANCE DELIVERY]"
    },
    "latlng": { "latitude": 14.6123178, "longitude": 120.9880759076923 }
  },
  {
    "id": "2-C2J3BF3DSA2YRX",
    "address": {
      "name": "Boodle Inasal x Happy Thirstday - Sampaloc [Available for LONG-DISTANCE DELIVERY]"
    },
    "latlng": { "latitude": 14.6071574, "longitude": 120.9876869 }
  },
  {
    "id": "2-C2K3TBCTV7AHCX",
    "address": {
      "name": "Banapple - SM San Lazaro [Available for LONG-DISTANCE DELIVERY]"
    },
    "latlng": { "latitude": 14.618972, "longitude": 120.985263 }
  },
  {
    "id": "2-C2JTEVCUFFAYA6",
    "address": {
      "name": "GrabKitchen - Mix and Match (Sampaloc) [Available for LONG-DISTANCE DELIVERY]"
    },
    "latlng": { "latitude": 14.6143302, "longitude": 120.9925804 }
  },
  {
    "id": "2-CZN2FAW1TRJ2N2",
    "address": {
      "name": "Cha Tuk Chak - Cloud Kitchen San Lazaro [Available for LONG-DISTANCE DELIVERY]"
    },
    "latlng": {
      "latitude": 14.619669790732132,
      "longitude": 120.98555428891945
    }
  },
  {
    "id": "PHGFSTI0000019k",
    "address": {
      "name": "David's Tea House - Sta. Cruz [Available for LONG-DISTANCE DELIVERY]"
    },
    "latlng": { "latitude": 14.60081561, "longitude": 120.9792872 }
  },
  {
    "id": "2-CYT1AKN3KFN1V2",
    "address": { "name": "Shakey's Pizza - SM San Lazaro" },
    "latlng": { "latitude": 14.6184894, "longitude": 120.9852252 }
  },
  {
    "id": "2-CZM3VGKZKCLDTE",
    "address": {
      "name": "Red Table - SM San Lazaro [Available for LONG-DISTANCE DELIVERY]"
    },
    "latlng": { "latitude": 14.6176851, "longitude": 120.986066675 }
  },
  {
    "id": "PHGFSTI0000017p",
    "address": {
      "name": "Kuya J's Restaurant - SM San Lazaro [Available for LONG-DISTANCE DELIVERY]"
    },
    "latlng": { "latitude": 14.618717660000002, "longitude": 120.985206 }
  },
  {
    "id": "2-C2JEE7UARFJYEN",
    "address": {
      "name": "Mister Kabab - GrabKitchen (Sampaloc) [Available for LONG-DISTANCE DELIVERY]"
    },
    "latlng": { "latitude": 14.6143335, "longitude": 120.9925847 }
  },
  {
    "id": "2-C23URRLCNJUTVT",
    "address": {
      "name": "Tutong's Laksa - Sampaloc [Available for LONG-DISTANCE DELIVERY]"
    },
    "latlng": { "latitude": 14.6097879, "longitude": 120.9862508 }
  },
  {
    "id": "2-C2MTUBWWRNKEAN",
    "address": {
      "name": "Wai Ying Fastfood - Tondo [Available for LONG-DISTANCE DELIVERY]"
    },
    "latlng": { "latitude": 14.6072429, "longitude": 120.978377 }
  },
  {
    "id": "PHGFSTI000004mr",
    "address": { "name": "Goldilocks - SM San Lazaro Foodshop" },
    "latlng": { "latitude": 14.6183767, "longitude": 120.985192 }
  },
  {
    "id": "PHGFSTI000001p1",
    "address": {
      "name": "Pho Hoa Vietnamese Noodle House - Lucky Chinatown Mall [Available for LONG-DISTANCE DELIVERY]"
    },
    "latlng": { "latitude": 14.6034077, "longitude": 120.9734002 }
  },
  {
    "id": "2-CYWKTUCFGY6EBE",
    "address": { "name": "Sisig Hooray - SM San Lazaro" },
    "latlng": { "latitude": 14.6181186, "longitude": 120.98551573 }
  },
  {
    "id": "2-CY6YR64EFE41PA",
    "address": {
      "name": "Inasal Chicken Bacolod - SM San Lazaro [Available for LONG-DISTANCE DELIVERY]"
    },
    "latlng": { "latitude": 14.6175648, "longitude": 120.98621754999999 }
  },
  {
    "id": "2-C2X2RNECVU4GEX",
    "address": {
      "name": "Ice Cream Scooper - Espa\u00f1a Boulevard [Available for LONG-DISTANCE DELIVERY]"
    },
    "latlng": { "latitude": 14.6117269, "longitude": 120.9953462 }
  },
  {
    "id": "2-C2MEV4L3GU33UE",
    "address": {
      "name": "Tapa King - Chinese General Hospital [Available for LONG-DISTANCE DELIVERY]"
    },
    "latlng": {
      "latitude": 14.625679999973585,
      "longitude": 120.98857781349608
    }
  },
  {
    "id": "2-CZKJC241LXA1TN",
    "address": { "name": "Food House by Madla - UST" },
    "latlng": { "latitude": 14.60785545410086, "longitude": 120.99240166666665 }
  },
  {
    "id": "2-C2MEPBJBLYU2DA",
    "address": {
      "name": "Dosirakuya Korean Street Food - Tondo [Available for LONG DISTANCE DELIVERY]"
    },
    "latlng": {
      "latitude": 14.610369618110482,
      "longitude": 120.97420072883261
    }
  },
  {
    "id": "2-CZAHEABBVTW2E2",
    "address": { "name": "Tim Hortons - SM San Lazaro" },
    "latlng": { "latitude": 14.619296461343763, "longitude": 120.9853582 }
  },
  {
    "id": "2-C23XVFLWGYCESA",
    "address": {
      "name": "Master Siomai - Espana Boulevard [Available for LONG-DISTANCE DELIVERY]"
    },
    "latlng": { "latitude": 14.61170187, "longitude": 120.995198 }
  },
  {
    "id": "2-C2UWRYJBTX4JSE",
    "address": { "name": "Big Scoop - P. Guevarra St" },
    "latlng": { "latitude": 14.6117504, "longitude": 120.9848649 }
  },
  {
    "id": "PHGFSTI00000145",
    "address": {
      "name": "Tokyo Tokyo - SM San Lazaro [Available for LONG-DISTANCE DELIVERY]"
    },
    "latlng": { "latitude": 14.6175713, "longitude": 120.98612815141676 }
  },
  {
    "id": "2-C2DDLZNZVTV2TA",
    "address": { "name": "CoCo Fresh Tea & Juice - GrabKitchen (Sampaloc)" },
    "latlng": { "latitude": 14.6143335, "longitude": 120.9925842 }
  },
  {
    "id": "PHGFSTI000000ym",
    "address": {
      "name": "Army Navy Burger + Burrito - UST Dapitan [Available for LONG-DISTANCE DELIVERY]"
    },
    "latlng": { "latitude": 14.6115019, "longitude": 120.9880575 }
  },
  {
    "id": "PHGFSTI000004jc",
    "address": {
      "name": "BonChon - SM City San Lazaro [Available for LONG-DISTANCE DELIVERY]"
    },
    "latlng": { "latitude": 14.6175894, "longitude": 120.98619020000001 }
  },
  {
    "id": "PHGFSTI0000019g",
    "address": {
      "name": "Classic Savory - SM San Lazaro [Available for LONG-DISTANCE DELIVERY]"
    },
    "latlng": { "latitude": 14.6176025, "longitude": 120.9863158 }
  },
  {
    "id": "PHGFSTI000001d0",
    "address": {
      "name": "S&R New York Style Pizza - Lucky Chinatown Mall [Available for LONG-DISTANCE DELIVERY]"
    },
    "latlng": {
      "latitude": 14.603515313353455,
      "longitude": 120.97409166395641
    }
  },
  {
    "id": "PHGFSTI0000029l",
    "address": {
      "name": "24 Chicken - P. Noval Dapitan [Available for LONG-DISTANCE DELIVERY]"
    },
    "latlng": { "latitude": 14.6097055, "longitude": 120.986619 }
  },
  {
    "id": "PHGFSTI000001ow",
    "address": {
      "name": "J.Co Donuts & Coffee - Lucky Chinatown Mall [Available for LONG-DISTANCE DELIVERY]"
    },
    "latlng": { "latitude": 14.6034786, "longitude": 120.97413444519042 }
  },
  {
    "id": "2-CYLXUABWCTX1WA",
    "address": {
      "name": "Yellow Cab Pizza - SM San Lazaro [Available for LONG-DISTANCE DELIVERY]"
    },
    "latlng": { "latitude": 14.6175634, "longitude": 120.98624878333334 }
  },
  {
    "id": "PHGFSTI000003ea",
    "address": {
      "name": "Subway - UST Campus [Available for LONG-DISTANCE DELIVERY]"
    },
    "latlng": { "latitude": 14.610537908571429, "longitude": 120.9902518 }
  },
  {
    "id": "2-CYX3ALEZHAAUHE",
    "address": {
      "name": "Lola Nena's Pichi Pichi - Espana Boulevard [Available for LONG-DISTANCE DELIVERY]"
    },
    "latlng": { "latitude": 14.60594795, "longitude": 120.9885574 }
  },
  {
    "id": "2-C2JECYXXKF2ATA",
    "address": {
      "name": "Happilee Korean Kitchen - GrabKitchen (Sampaloc) [Available for LONG-DISTANCE DELIVERY]"
    },
    "latlng": { "latitude": 14.6143448, "longitude": 120.9925752 }
  },
  {
    "id": "2-CYJ3JKLXKCNVG2",
    "address": {
      "name": "Buffalo's Wings N' Things - SM San Lazaro [Available for LONG-DISTANCE DELIVERY]"
    },
    "latlng": { "latitude": 14.6177683, "longitude": 120.98586350679396 }
  },
  {
    "id": "2-CYKZLA4TT3JVTA",
    "address": {
      "name": "Max's Restaurant - SM San Lazaro [Available for LONG-DISTANCE DELIVERY]"
    },
    "latlng": { "latitude": 14.6176326, "longitude": 120.98607781818181 }
  },
  {
    "id": "2-C2BFLTLFEU21GE",
    "address": {
      "name": "Cara Mia Cakes & Gelato - SM San Lazaro [Available for LONG-DISTANCE DELIVERY]"
    },
    "latlng": { "latitude": 14.6186689, "longitude": 120.98527427999998 }
  },
  {
    "id": "2-C2LHPF4FGTMHL6",
    "address": {
      "name": "The Aristocrat Restaurant - SM San Lazaro [Available for LONG-DISTANCE DELIVERY]"
    },
    "latlng": { "latitude": 14.617857, "longitude": 120.985417 }
  },
  {
    "id": "2-C23ZNBUFGADZTN",
    "address": { "name": "Dadudz Unli Wings - St. Thomas Square" },
    "latlng": { "latitude": 14.60562305, "longitude": 120.988576 }
  },
  {
    "id": "2-C2U2WGKAVKXCTE",
    "address": { "name": "Conti's Bakeshop and Restaurant - SM San Lazaro" },
    "latlng": { "latitude": 14.61780108, "longitude": 120.9853594 }
  },
  {
    "id": "2-C2AYFBLWEA4ZRA",
    "address": {
      "name": "Conti's Bakeshop - Lucky Chinatown Mall [Available for LONG-DISTANCE DELIVERY]"
    },
    "latlng": { "latitude": 14.60304336978875, "longitude": 120.97393467043344 }
  },
  {
    "id": "2-C2WFT2UYEUBDCX",
    "address": {
      "name": "Caution Bistro - Manila [Available for LONG-DISTANCE DELIVERY]"
    },
    "latlng": { "latitude": 14.614305, "longitude": 120.990737 }
  },
  {
    "id": "2-C2XERKUYFBEWEA",
    "address": {
      "name": "Big Al's Cookie Jar - GrabKitchen (Sampaloc) [Available for LONG-DISTANCE DELIVERY]"
    },
    "latlng": { "latitude": 14.6143335, "longitude": 120.9925847 }
  },
  {
    "id": "2-CY3VAZCEDGNEVA",
    "address": {
      "name": "Pepper Lunch Express - Lucky Chinatown [Available for LONG-DISTANCE DELIVERY]"
    },
    "latlng": { "latitude": 14.6029055, "longitude": 120.9738317 }
  },
  {
    "id": "2-CY5HE8BXA222E2",
    "address": {
      "name": "Hawker Chan - SM San Lazaro [Available for LONG-DISTANCE DELIVERY]"
    },
    "latlng": { "latitude": 14.6188394, "longitude": 120.9853949 }
  },
  {
    "id": "2-CZNVAN6KLBT1L2",
    "address": { "name": "Starbucks - Metropolitan Medical Center" },
    "latlng": { "latitude": 14.6095408, "longitude": 120.9786337 }
  },
  {
    "id": "AWhenmIUkk5cOZVWu4Y-",
    "address": { "name": "Chooks To Go - Laon-Laan Street Sampaloc" },
    "latlng": { "latitude": 14.61317095, "longitude": 120.9879167 }
  },
  {
    "id": "PHGFSTI000002cu",
    "address": {
      "name": "Al Jograts - V. Concepcion [Available for LONG-DISTANCE DELIVERY]"
    },
    "latlng": { "latitude": 14.6123178, "longitude": 120.9880759076923 }
  },
  {
    "id": "2-C2J3BF3DSA2YRX",
    "address": {
      "name": "Boodle Inasal x Happy Thirstday - Sampaloc [Available for LONG-DISTANCE DELIVERY]"
    },
    "latlng": { "latitude": 14.6071574, "longitude": 120.9876869 }
  },
  {
    "id": "2-C2K3TBCTV7AHCX",
    "address": {
      "name": "Banapple - SM San Lazaro [Available for LONG-DISTANCE DELIVERY]"
    },
    "latlng": { "latitude": 14.618972, "longitude": 120.985263 }
  },
  {
    "id": "2-C2JTEVCUFFAYA6",
    "address": {
      "name": "GrabKitchen - Mix and Match (Sampaloc) [Available for LONG-DISTANCE DELIVERY]"
    },
    "latlng": { "latitude": 14.6143302, "longitude": 120.9925804 }
  },
  {
    "id": "2-CZN2FAW1TRJ2N2",
    "address": {
      "name": "Cha Tuk Chak - Cloud Kitchen San Lazaro [Available for LONG-DISTANCE DELIVERY]"
    },
    "latlng": {
      "latitude": 14.619669790732132,
      "longitude": 120.98555428891945
    }
  },
  {
    "id": "PHGFSTI0000019k",
    "address": {
      "name": "David's Tea House - Sta. Cruz [Available for LONG-DISTANCE DELIVERY]"
    },
    "latlng": { "latitude": 14.60081561, "longitude": 120.9792872 }
  },
  {
    "id": "2-CYT1AKN3KFN1V2",
    "address": { "name": "Shakey's Pizza - SM San Lazaro" },
    "latlng": { "latitude": 14.6184894, "longitude": 120.9852252 }
  },
  {
    "id": "2-CZM3VGKZKCLDTE",
    "address": {
      "name": "Red Table - SM San Lazaro [Available for LONG-DISTANCE DELIVERY]"
    },
    "latlng": { "latitude": 14.6176851, "longitude": 120.986066675 }
  },
  {
    "id": "PHGFSTI0000017p",
    "address": {
      "name": "Kuya J's Restaurant - SM San Lazaro [Available for LONG-DISTANCE DELIVERY]"
    },
    "latlng": { "latitude": 14.618717660000002, "longitude": 120.985206 }
  },
  {
    "id": "2-C2JEE7UARFJYEN",
    "address": {
      "name": "Mister Kabab - GrabKitchen (Sampaloc) [Available for LONG-DISTANCE DELIVERY]"
    },
    "latlng": { "latitude": 14.6143335, "longitude": 120.9925847 }
  },
  {
    "id": "2-C23URRLCNJUTVT",
    "address": {
      "name": "Tutong's Laksa - Sampaloc [Available for LONG-DISTANCE DELIVERY]"
    },
    "latlng": { "latitude": 14.6097879, "longitude": 120.9862508 }
  },
  {
    "id": "2-C2MTUBWWRNKEAN",
    "address": {
      "name": "Wai Ying Fastfood - Tondo [Available for LONG-DISTANCE DELIVERY]"
    },
    "latlng": { "latitude": 14.6072429, "longitude": 120.978377 }
  },
  {
    "id": "PHGFSTI000004mr",
    "address": { "name": "Goldilocks - SM San Lazaro Foodshop" },
    "latlng": { "latitude": 14.6183767, "longitude": 120.985192 }
  },
  {
    "id": "PHGFSTI000001p1",
    "address": {
      "name": "Pho Hoa Vietnamese Noodle House - Lucky Chinatown Mall [Available for LONG-DISTANCE DELIVERY]"
    },
    "latlng": { "latitude": 14.6034077, "longitude": 120.9734002 }
  },
  {
    "id": "2-CYWKTUCFGY6EBE",
    "address": { "name": "Sisig Hooray - SM San Lazaro" },
    "latlng": { "latitude": 14.6181186, "longitude": 120.98551573 }
  },
  {
    "id": "2-CY6YR64EFE41PA",
    "address": {
      "name": "Inasal Chicken Bacolod - SM San Lazaro [Available for LONG-DISTANCE DELIVERY]"
    },
    "latlng": { "latitude": 14.6175648, "longitude": 120.98621754999999 }
  },
  {
    "id": "2-C2X2RNECVU4GEX",
    "address": {
      "name": "Ice Cream Scooper - Espa\u00f1a Boulevard [Available for LONG-DISTANCE DELIVERY]"
    },
    "latlng": { "latitude": 14.6117269, "longitude": 120.9953462 }
  },
  {
    "id": "2-C2MEV4L3GU33UE",
    "address": {
      "name": "Tapa King - Chinese General Hospital [Available for LONG-DISTANCE DELIVERY]"
    },
    "latlng": {
      "latitude": 14.625679999973585,
      "longitude": 120.98857781349608
    }
  },
  {
    "id": "2-CZKJC241LXA1TN",
    "address": { "name": "Food House by Madla - UST" },
    "latlng": { "latitude": 14.60785545410086, "longitude": 120.99240166666665 }
  },
  {
    "id": "2-C2MEPBJBLYU2DA",
    "address": {
      "name": "Dosirakuya Korean Street Food - Tondo [Available for LONG DISTANCE DELIVERY]"
    },
    "latlng": {
      "latitude": 14.610369618110482,
      "longitude": 120.97420072883261
    }
  },
  {
    "id": "2-CZAHEABBVTW2E2",
    "address": { "name": "Tim Hortons - SM San Lazaro" },
    "latlng": { "latitude": 14.619296461343763, "longitude": 120.9853582 }
  },
  {
    "id": "2-C23XVFLWGYCESA",
    "address": {
      "name": "Master Siomai - Espana Boulevard [Available for LONG-DISTANCE DELIVERY]"
    },
    "latlng": { "latitude": 14.61170187, "longitude": 120.995198 }
  },
  {
    "id": "2-C2UWRYJBTX4JSE",
    "address": { "name": "Big Scoop - P. Guevarra St" },
    "latlng": { "latitude": 14.6117504, "longitude": 120.9848649 }
  },
  {
    "id": "2-CZCUJA2GNTWTTJ",
    "address": {
      "name": "Tastes from the Greens - UST [Available for LONG-DISTANCE DELIVERY]"
    },
    "latlng": { "latitude": 14.612146549999999, "longitude": 120.9883315 }
  },
  {
    "id": "PHGFSTI0000019v",
    "address": {
      "name": "King Chef - Lucky Chinatown Mall (Seafood Restaurant)"
    },
    "latlng": { "latitude": 14.6032502, "longitude": 120.9733011475 }
  },
  {
    "id": "2-CZEUNCDVLRDFKE",
    "address": {
      "name": "Pancake House - SM San Lazaro [Available for LONG-DISTANCE DELIVERY]"
    },
    "latlng": { "latitude": 14.618261633333333, "longitude": 120.98536308 }
  },
  {
    "id": "2-CZJHLB6ZLXAAN2",
    "address": {
      "name": "Mann Hann - SM San Lazaro [Available for LONG-DISTANCE DELIVERY]"
    },
    "latlng": { "latitude": 14.617811342857143, "longitude": 120.9858458375 }
  },
  {
    "id": "2-CZEVR32XCT2AME",
    "address": {
      "name": "Cafe Mary Grace - SM San Lazaro [Available for LONG-DISTANCE DELIVERY]"
    },
    "latlng": { "latitude": 14.617914633333333, "longitude": 120.9856637 }
  },
  {
    "id": "2-CYNVTTMHVECZTJ",
    "address": {
      "name": "Hap Chan - SM San Lazaro [Available for LONG-DISTANCE DELIVERY]"
    },
    "latlng": { "latitude": 14.6176434, "longitude": 120.98609972857143 }
  },
  {
    "id": "2-C2JEGU22R4MAT2",
    "address": {
      "name": "Omakase - GrabKitchen (Sampaloc) [Available for LONG-DISTANCE DELIVERY]"
    },
    "latlng": { "latitude": 14.6143353, "longitude": 120.9925847 }
  },
  {
    "id": "2-C2JWTKWGAYUET2",
    "address": { "name": "Kinben Ramen - Maceda" },
    "latlng": { "latitude": 14.620124, "longitude": 120.992494 }
  },
  {
    "id": "PHGFSTI00000145",
    "address": {
      "name": "Tokyo Tokyo - SM San Lazaro [Available for LONG-DISTANCE DELIVERY]"
    },
    "latlng": { "latitude": 14.6175713, "longitude": 120.98612815141676 }
  },
  {
    "id": "2-C2DDLZNZVTV2TA",
    "address": { "name": "CoCo Fresh Tea & Juice - GrabKitchen (Sampaloc)" },
    "latlng": { "latitude": 14.6143335, "longitude": 120.9925842 }
  },
  {
    "id": "PHGFSTI000000ym",
    "address": {
      "name": "Army Navy Burger + Burrito - UST Dapitan [Available for LONG-DISTANCE DELIVERY]"
    },
    "latlng": { "latitude": 14.6115019, "longitude": 120.9880575 }
  },
  {
    "id": "PHGFSTI000004jc",
    "address": {
      "name": "BonChon - SM City San Lazaro [Available for LONG-DISTANCE DELIVERY]"
    },
    "latlng": { "latitude": 14.6175894, "longitude": 120.98619020000001 }
  },
  {
    "id": "PHGFSTI0000019g",
    "address": {
      "name": "Classic Savory - SM San Lazaro [Available for LONG-DISTANCE DELIVERY]"
    },
    "latlng": { "latitude": 14.6176025, "longitude": 120.9863158 }
  },
  {
    "id": "PHGFSTI000001d0",
    "address": {
      "name": "S&R New York Style Pizza - Lucky Chinatown Mall [Available for LONG-DISTANCE DELIVERY]"
    },
    "latlng": {
      "latitude": 14.603515313353455,
      "longitude": 120.97409166395641
    }
  },
  {
    "id": "PHGFSTI0000029l",
    "address": {
      "name": "24 Chicken - P. Noval Dapitan [Available for LONG-DISTANCE DELIVERY]"
    },
    "latlng": { "latitude": 14.6097055, "longitude": 120.986619 }
  },
  {
    "id": "PHGFSTI000001ow",
    "address": {
      "name": "J.Co Donuts & Coffee - Lucky Chinatown Mall [Available for LONG-DISTANCE DELIVERY]"
    },
    "latlng": { "latitude": 14.6034786, "longitude": 120.97413444519042 }
  },
  {
    "id": "2-CYLXUABWCTX1WA",
    "address": {
      "name": "Yellow Cab Pizza - SM San Lazaro [Available for LONG-DISTANCE DELIVERY]"
    },
    "latlng": { "latitude": 14.6175634, "longitude": 120.98624878333334 }
  },
  {
    "id": "PHGFSTI000003ea",
    "address": {
      "name": "Subway - UST Campus [Available for LONG-DISTANCE DELIVERY]"
    },
    "latlng": { "latitude": 14.610537908571429, "longitude": 120.9902518 }
  },
  {
    "id": "2-CYX3ALEZHAAUHE",
    "address": {
      "name": "Lola Nena's Pichi Pichi - Espana Boulevard [Available for LONG-DISTANCE DELIVERY]"
    },
    "latlng": { "latitude": 14.60594795, "longitude": 120.9885574 }
  },
  {
    "id": "2-C2JECYXXKF2ATA",
    "address": {
      "name": "Happilee Korean Kitchen - GrabKitchen (Sampaloc) [Available for LONG-DISTANCE DELIVERY]"
    },
    "latlng": { "latitude": 14.6143448, "longitude": 120.9925752 }
  },
  {
    "id": "2-CYJ3JKLXKCNVG2",
    "address": {
      "name": "Buffalo's Wings N' Things - SM San Lazaro [Available for LONG-DISTANCE DELIVERY]"
    },
    "latlng": { "latitude": 14.6177683, "longitude": 120.98586350679396 }
  },
  {
    "id": "2-CYKZLA4TT3JVTA",
    "address": {
      "name": "Max's Restaurant - SM San Lazaro [Available for LONG-DISTANCE DELIVERY]"
    },
    "latlng": { "latitude": 14.6176326, "longitude": 120.98607781818181 }
  },
  {
    "id": "2-C2BFLTLFEU21GE",
    "address": {
      "name": "Cara Mia Cakes & Gelato - SM San Lazaro [Available for LONG-DISTANCE DELIVERY]"
    },
    "latlng": { "latitude": 14.6186689, "longitude": 120.98527427999998 }
  },
  {
    "id": "2-C2LHPF4FGTMHL6",
    "address": {
      "name": "The Aristocrat Restaurant - SM San Lazaro [Available for LONG-DISTANCE DELIVERY]"
    },
    "latlng": { "latitude": 14.617857, "longitude": 120.985417 }
  },
  {
    "id": "2-C23ZNBUFGADZTN",
    "address": { "name": "Dadudz Unli Wings - St. Thomas Square" },
    "latlng": { "latitude": 14.60562305, "longitude": 120.988576 }
  },
  {
    "id": "2-C2U2WGKAVKXCTE",
    "address": { "name": "Conti's Bakeshop and Restaurant - SM San Lazaro" },
    "latlng": { "latitude": 14.61780108, "longitude": 120.9853594 }
  },
  {
    "id": "2-C2AYFBLWEA4ZRA",
    "address": {
      "name": "Conti's Bakeshop - Lucky Chinatown Mall [Available for LONG-DISTANCE DELIVERY]"
    },
    "latlng": { "latitude": 14.60304336978875, "longitude": 120.97393467043344 }
  },
  {
    "id": "2-C2WFT2UYEUBDCX",
    "address": {
      "name": "Caution Bistro - Manila [Available for LONG-DISTANCE DELIVERY]"
    },
    "latlng": { "latitude": 14.614305, "longitude": 120.990737 }
  },
  {
    "id": "2-C2XERKUYFBEWEA",
    "address": {
      "name": "Big Al's Cookie Jar - GrabKitchen (Sampaloc) [Available for LONG-DISTANCE DELIVERY]"
    },
    "latlng": { "latitude": 14.6143335, "longitude": 120.9925847 }
  },
  {
    "id": "2-CY3VAZCEDGNEVA",
    "address": {
      "name": "Pepper Lunch Express - Lucky Chinatown [Available for LONG-DISTANCE DELIVERY]"
    },
    "latlng": { "latitude": 14.6029055, "longitude": 120.9738317 }
  },
  {
    "id": "2-CY5HE8BXA222E2",
    "address": {
      "name": "Hawker Chan - SM San Lazaro [Available for LONG-DISTANCE DELIVERY]"
    },
    "latlng": { "latitude": 14.6188394, "longitude": 120.9853949 }
  },
  {
    "id": "2-CZNVAN6KLBT1L2",
    "address": { "name": "Starbucks - Metropolitan Medical Center" },
    "latlng": { "latitude": 14.6095408, "longitude": 120.9786337 }
  },
  {
    "id": "AWhenmIUkk5cOZVWu4Y-",
    "address": { "name": "Chooks To Go - Laon-Laan Street Sampaloc" },
    "latlng": { "latitude": 14.61317095, "longitude": 120.9879167 }
  },
  {
    "id": "PHGFSTI000002cu",
    "address": {
      "name": "Al Jograts - V. Concepcion [Available for LONG-DISTANCE DELIVERY]"
    },
    "latlng": { "latitude": 14.6123178, "longitude": 120.9880759076923 }
  },
  {
    "id": "2-C2J3BF3DSA2YRX",
    "address": {
      "name": "Boodle Inasal x Happy Thirstday - Sampaloc [Available for LONG-DISTANCE DELIVERY]"
    },
    "latlng": { "latitude": 14.6071574, "longitude": 120.9876869 }
  },
  {
    "id": "2-C2K3TBCTV7AHCX",
    "address": {
      "name": "Banapple - SM San Lazaro [Available for LONG-DISTANCE DELIVERY]"
    },
    "latlng": { "latitude": 14.618972, "longitude": 120.985263 }
  },
  {
    "id": "2-C2JTEVCUFFAYA6",
    "address": {
      "name": "GrabKitchen - Mix and Match (Sampaloc) [Available for LONG-DISTANCE DELIVERY]"
    },
    "latlng": { "latitude": 14.6143302, "longitude": 120.9925804 }
  },
  {
    "id": "2-CZN2FAW1TRJ2N2",
    "address": {
      "name": "Cha Tuk Chak - Cloud Kitchen San Lazaro [Available for LONG-DISTANCE DELIVERY]"
    },
    "latlng": {
      "latitude": 14.619669790732132,
      "longitude": 120.98555428891945
    }
  },
  {
    "id": "PHGFSTI0000019k",
    "address": {
      "name": "David's Tea House - Sta. Cruz [Available for LONG-DISTANCE DELIVERY]"
    },
    "latlng": { "latitude": 14.60081561, "longitude": 120.9792872 }
  },
  {
    "id": "2-CYT1AKN3KFN1V2",
    "address": { "name": "Shakey's Pizza - SM San Lazaro" },
    "latlng": { "latitude": 14.6184894, "longitude": 120.9852252 }
  },
  {
    "id": "2-CZM3VGKZKCLDTE",
    "address": {
      "name": "Red Table - SM San Lazaro [Available for LONG-DISTANCE DELIVERY]"
    },
    "latlng": { "latitude": 14.6176851, "longitude": 120.986066675 }
  },
  {
    "id": "PHGFSTI0000017p",
    "address": {
      "name": "Kuya J's Restaurant - SM San Lazaro [Available for LONG-DISTANCE DELIVERY]"
    },
    "latlng": { "latitude": 14.618717660000002, "longitude": 120.985206 }
  },
  {
    "id": "2-C2JEE7UARFJYEN",
    "address": {
      "name": "Mister Kabab - GrabKitchen (Sampaloc) [Available for LONG-DISTANCE DELIVERY]"
    },
    "latlng": { "latitude": 14.6143335, "longitude": 120.9925847 }
  },
  {
    "id": "2-C23URRLCNJUTVT",
    "address": {
      "name": "Tutong's Laksa - Sampaloc [Available for LONG-DISTANCE DELIVERY]"
    },
    "latlng": { "latitude": 14.6097879, "longitude": 120.9862508 }
  },
  {
    "id": "2-C2MTUBWWRNKEAN",
    "address": {
      "name": "Wai Ying Fastfood - Tondo [Available for LONG-DISTANCE DELIVERY]"
    },
    "latlng": { "latitude": 14.6072429, "longitude": 120.978377 }
  },
  {
    "id": "PHGFSTI000004mr",
    "address": { "name": "Goldilocks - SM San Lazaro Foodshop" },
    "latlng": { "latitude": 14.6183767, "longitude": 120.985192 }
  },
  {
    "id": "PHGFSTI000001p1",
    "address": {
      "name": "Pho Hoa Vietnamese Noodle House - Lucky Chinatown Mall [Available for LONG-DISTANCE DELIVERY]"
    },
    "latlng": { "latitude": 14.6034077, "longitude": 120.9734002 }
  },
  {
    "id": "2-CYWKTUCFGY6EBE",
    "address": { "name": "Sisig Hooray - SM San Lazaro" },
    "latlng": { "latitude": 14.6181186, "longitude": 120.98551573 }
  },
  {
    "id": "2-CY6YR64EFE41PA",
    "address": {
      "name": "Inasal Chicken Bacolod - SM San Lazaro [Available for LONG-DISTANCE DELIVERY]"
    },
    "latlng": { "latitude": 14.6175648, "longitude": 120.98621754999999 }
  },
  {
    "id": "2-C2X2RNECVU4GEX",
    "address": {
      "name": "Ice Cream Scooper - Espa\u00f1a Boulevard [Available for LONG-DISTANCE DELIVERY]"
    },
    "latlng": { "latitude": 14.6117269, "longitude": 120.9953462 }
  },
  {
    "id": "2-C2MEV4L3GU33UE",
    "address": {
      "name": "Tapa King - Chinese General Hospital [Available for LONG-DISTANCE DELIVERY]"
    },
    "latlng": {
      "latitude": 14.625679999973585,
      "longitude": 120.98857781349608
    }
  },
  {
    "id": "2-CZKJC241LXA1TN",
    "address": { "name": "Food House by Madla - UST" },
    "latlng": { "latitude": 14.60785545410086, "longitude": 120.99240166666665 }
  },
  {
    "id": "2-C2MEPBJBLYU2DA",
    "address": {
      "name": "Dosirakuya Korean Street Food - Tondo [Available for LONG DISTANCE DELIVERY]"
    },
    "latlng": {
      "latitude": 14.610369618110482,
      "longitude": 120.97420072883261
    }
  },
  {
    "id": "2-CZAHEABBVTW2E2",
    "address": { "name": "Tim Hortons - SM San Lazaro" },
    "latlng": { "latitude": 14.619296461343763, "longitude": 120.9853582 }
  },
  {
    "id": "2-C23XVFLWGYCESA",
    "address": {
      "name": "Master Siomai - Espana Boulevard [Available for LONG-DISTANCE DELIVERY]"
    },
    "latlng": { "latitude": 14.61170187, "longitude": 120.995198 }
  },
  {
    "id": "2-C2UWRYJBTX4JSE",
    "address": { "name": "Big Scoop - P. Guevarra St" },
    "latlng": { "latitude": 14.6117504, "longitude": 120.9848649 }
  },
  {
    "id": "2-CZCUJA2GNTWTTJ",
    "address": {
      "name": "Tastes from the Greens - UST [Available for LONG-DISTANCE DELIVERY]"
    },
    "latlng": { "latitude": 14.612146549999999, "longitude": 120.9883315 }
  },
  {
    "id": "PHGFSTI0000019v",
    "address": {
      "name": "King Chef - Lucky Chinatown Mall (Seafood Restaurant)"
    },
    "latlng": { "latitude": 14.6032502, "longitude": 120.9733011475 }
  },
  {
    "id": "2-CZEUNCDVLRDFKE",
    "address": {
      "name": "Pancake House - SM San Lazaro [Available for LONG-DISTANCE DELIVERY]"
    },
    "latlng": { "latitude": 14.618261633333333, "longitude": 120.98536308 }
  },
  {
    "id": "2-CZJHLB6ZLXAAN2",
    "address": {
      "name": "Mann Hann - SM San Lazaro [Available for LONG-DISTANCE DELIVERY]"
    },
    "latlng": { "latitude": 14.617811342857143, "longitude": 120.9858458375 }
  },
  {
    "id": "2-CZEVR32XCT2AME",
    "address": {
      "name": "Cafe Mary Grace - SM San Lazaro [Available for LONG-DISTANCE DELIVERY]"
    },
    "latlng": { "latitude": 14.617914633333333, "longitude": 120.9856637 }
  },
  {
    "id": "2-CYNVTTMHVECZTJ",
    "address": {
      "name": "Hap Chan - SM San Lazaro [Available for LONG-DISTANCE DELIVERY]"
    },
    "latlng": { "latitude": 14.6176434, "longitude": 120.98609972857143 }
  },
  {
    "id": "2-C2JEGU22R4MAT2",
    "address": {
      "name": "Omakase - GrabKitchen (Sampaloc) [Available for LONG-DISTANCE DELIVERY]"
    },
    "latlng": { "latitude": 14.6143353, "longitude": 120.9925847 }
  },
  {
    "id": "2-C2JWTKWGAYUET2",
    "address": { "name": "Kinben Ramen - Maceda" },
    "latlng": { "latitude": 14.620124, "longitude": 120.992494 }
  },
  {
    "id": "2-CYKFJU5JTUT1AE",
    "address": { "name": "Boulangerie22 - Pacific Icon Residences" },
    "latlng": { "latitude": 14.6115292, "longitude": 120.988101 }
  },
  {
    "id": "2-C23DRCMKFE6YCT",
    "address": { "name": "Paluto Nga Po - Maceda Street" },
    "latlng": {
      "latitude": 14.619370780611604,
      "longitude": 120.99346505522533
    }
  },
  {
    "id": "PHGFSTI0000017u",
    "address": {
      "name": "Sbarro - SM San Lazaro [Available for LONG-DISTANCE DELIVERY]"
    },
    "latlng": { "latitude": 14.6179262, "longitude": 120.9856854 }
  },
  {
    "id": "2-CYKELGDULCBWTN",
    "address": {
      "name": "ProJuice - Castillas [Available for LONG-DISTANCE DELIVERY]"
    },
    "latlng": { "latitude": 14.613154, "longitude": 120.990576 }
  },
  {
    "id": "2-CY6YVVJJR8NXFE",
    "address": {
      "name": "Rarjap Sushi House - V. Concepcion Street [Available for LONG-DISTANCE DELIVERY]"
    },
    "latlng": { "latitude": 14.6122898, "longitude": 120.9881811 }
  },
  {
    "id": "2-CZEJHFWBAYWXTJ",
    "address": { "name": "Mammy's Kitchen - Gelinos Street" },
    "latlng": { "latitude": 14.6148228, "longitude": 120.986745 }
  },
  {
    "id": "2-CY3CGYMHELJWNX",
    "address": { "name": "Pizza Hut - SM San Lazaro" },
    "latlng": { "latitude": 14.6187372, "longitude": 120.98525154705882 }
  },
  {
    "id": "PHGFSTI00000126",
    "address": { "name": "Jatujak Thai Restaurant - SM San Lazaro" },
    "latlng": { "latitude": 14.61758356, "longitude": 120.9862531 }
  },
  {
    "id": "PHGFSTI00000145",
    "address": {
      "name": "Tokyo Tokyo - SM San Lazaro [Available for LONG-DISTANCE DELIVERY]"
    },
    "latlng": { "latitude": 14.6175713, "longitude": 120.98612815141676 }
  },
  {
    "id": "2-C2DDLZNZVTV2TA",
    "address": { "name": "CoCo Fresh Tea & Juice - GrabKitchen (Sampaloc)" },
    "latlng": { "latitude": 14.6143335, "longitude": 120.9925842 }
  },
  {
    "id": "PHGFSTI000000ym",
    "address": {
      "name": "Army Navy Burger + Burrito - UST Dapitan [Available for LONG-DISTANCE DELIVERY]"
    },
    "latlng": { "latitude": 14.6115019, "longitude": 120.9880575 }
  },
  {
    "id": "PHGFSTI000004jc",
    "address": {
      "name": "BonChon - SM City San Lazaro [Available for LONG-DISTANCE DELIVERY]"
    },
    "latlng": { "latitude": 14.6175894, "longitude": 120.98619020000001 }
  },
  {
    "id": "PHGFSTI0000019g",
    "address": {
      "name": "Classic Savory - SM San Lazaro [Available for LONG-DISTANCE DELIVERY]"
    },
    "latlng": { "latitude": 14.6176025, "longitude": 120.9863158 }
  },
  {
    "id": "PHGFSTI000001d0",
    "address": {
      "name": "S&R New York Style Pizza - Lucky Chinatown Mall [Available for LONG-DISTANCE DELIVERY]"
    },
    "latlng": {
      "latitude": 14.603515313353455,
      "longitude": 120.97409166395641
    }
  },
  {
    "id": "PHGFSTI0000029l",
    "address": {
      "name": "24 Chicken - P. Noval Dapitan [Available for LONG-DISTANCE DELIVERY]"
    },
    "latlng": { "latitude": 14.6097055, "longitude": 120.986619 }
  },
  {
    "id": "PHGFSTI000001ow",
    "address": {
      "name": "J.Co Donuts & Coffee - Lucky Chinatown Mall [Available for LONG-DISTANCE DELIVERY]"
    },
    "latlng": { "latitude": 14.6034786, "longitude": 120.97413444519042 }
  },
  {
    "id": "2-CYLXUABWCTX1WA",
    "address": {
      "name": "Yellow Cab Pizza - SM San Lazaro [Available for LONG-DISTANCE DELIVERY]"
    },
    "latlng": { "latitude": 14.6175634, "longitude": 120.98624878333334 }
  },
  {
    "id": "PHGFSTI000003ea",
    "address": {
      "name": "Subway - UST Campus [Available for LONG-DISTANCE DELIVERY]"
    },
    "latlng": { "latitude": 14.610537908571429, "longitude": 120.9902518 }
  },
  {
    "id": "2-CYX3ALEZHAAUHE",
    "address": {
      "name": "Lola Nena's Pichi Pichi - Espana Boulevard [Available for LONG-DISTANCE DELIVERY]"
    },
    "latlng": { "latitude": 14.60594795, "longitude": 120.9885574 }
  },
  {
    "id": "2-C2JECYXXKF2ATA",
    "address": {
      "name": "Happilee Korean Kitchen - GrabKitchen (Sampaloc) [Available for LONG-DISTANCE DELIVERY]"
    },
    "latlng": { "latitude": 14.6143448, "longitude": 120.9925752 }
  },
  {
    "id": "2-CYJ3JKLXKCNVG2",
    "address": {
      "name": "Buffalo's Wings N' Things - SM San Lazaro [Available for LONG-DISTANCE DELIVERY]"
    },
    "latlng": { "latitude": 14.6177683, "longitude": 120.98586350679396 }
  },
  {
    "id": "2-CYKZLA4TT3JVTA",
    "address": {
      "name": "Max's Restaurant - SM San Lazaro [Available for LONG-DISTANCE DELIVERY]"
    },
    "latlng": { "latitude": 14.6176326, "longitude": 120.98607781818181 }
  },
  {
    "id": "2-C2BFLTLFEU21GE",
    "address": {
      "name": "Cara Mia Cakes & Gelato - SM San Lazaro [Available for LONG-DISTANCE DELIVERY]"
    },
    "latlng": { "latitude": 14.6186689, "longitude": 120.98527427999998 }
  },
  {
    "id": "2-C2LHPF4FGTMHL6",
    "address": {
      "name": "The Aristocrat Restaurant - SM San Lazaro [Available for LONG-DISTANCE DELIVERY]"
    },
    "latlng": { "latitude": 14.617857, "longitude": 120.985417 }
  },
  {
    "id": "2-C23ZNBUFGADZTN",
    "address": { "name": "Dadudz Unli Wings - St. Thomas Square" },
    "latlng": { "latitude": 14.60562305, "longitude": 120.988576 }
  },
  {
    "id": "2-C2U2WGKAVKXCTE",
    "address": { "name": "Conti's Bakeshop and Restaurant - SM San Lazaro" },
    "latlng": { "latitude": 14.61780108, "longitude": 120.9853594 }
  },
  {
    "id": "2-C2AYFBLWEA4ZRA",
    "address": {
      "name": "Conti's Bakeshop - Lucky Chinatown Mall [Available for LONG-DISTANCE DELIVERY]"
    },
    "latlng": { "latitude": 14.60304336978875, "longitude": 120.97393467043344 }
  },
  {
    "id": "2-C2WFT2UYEUBDCX",
    "address": {
      "name": "Caution Bistro - Manila [Available for LONG-DISTANCE DELIVERY]"
    },
    "latlng": { "latitude": 14.614305, "longitude": 120.990737 }
  },
  {
    "id": "2-C2XERKUYFBEWEA",
    "address": {
      "name": "Big Al's Cookie Jar - GrabKitchen (Sampaloc) [Available for LONG-DISTANCE DELIVERY]"
    },
    "latlng": { "latitude": 14.6143335, "longitude": 120.9925847 }
  },
  {
    "id": "2-CY3VAZCEDGNEVA",
    "address": {
      "name": "Pepper Lunch Express - Lucky Chinatown [Available for LONG-DISTANCE DELIVERY]"
    },
    "latlng": { "latitude": 14.6029055, "longitude": 120.9738317 }
  },
  {
    "id": "2-CY5HE8BXA222E2",
    "address": {
      "name": "Hawker Chan - SM San Lazaro [Available for LONG-DISTANCE DELIVERY]"
    },
    "latlng": { "latitude": 14.6188394, "longitude": 120.9853949 }
  },
  {
    "id": "2-CZNVAN6KLBT1L2",
    "address": { "name": "Starbucks - Metropolitan Medical Center" },
    "latlng": { "latitude": 14.6095408, "longitude": 120.9786337 }
  },
  {
    "id": "AWhenmIUkk5cOZVWu4Y-",
    "address": { "name": "Chooks To Go - Laon-Laan Street Sampaloc" },
    "latlng": { "latitude": 14.61317095, "longitude": 120.9879167 }
  },
  {
    "id": "PHGFSTI000002cu",
    "address": {
      "name": "Al Jograts - V. Concepcion [Available for LONG-DISTANCE DELIVERY]"
    },
    "latlng": { "latitude": 14.6123178, "longitude": 120.9880759076923 }
  },
  {
    "id": "2-C2J3BF3DSA2YRX",
    "address": {
      "name": "Boodle Inasal x Happy Thirstday - Sampaloc [Available for LONG-DISTANCE DELIVERY]"
    },
    "latlng": { "latitude": 14.6071574, "longitude": 120.9876869 }
  },
  {
    "id": "2-C2K3TBCTV7AHCX",
    "address": {
      "name": "Banapple - SM San Lazaro [Available for LONG-DISTANCE DELIVERY]"
    },
    "latlng": { "latitude": 14.618972, "longitude": 120.985263 }
  },
  {
    "id": "2-C2JTEVCUFFAYA6",
    "address": {
      "name": "GrabKitchen - Mix and Match (Sampaloc) [Available for LONG-DISTANCE DELIVERY]"
    },
    "latlng": { "latitude": 14.6143302, "longitude": 120.9925804 }
  },
  {
    "id": "2-CZN2FAW1TRJ2N2",
    "address": {
      "name": "Cha Tuk Chak - Cloud Kitchen San Lazaro [Available for LONG-DISTANCE DELIVERY]"
    },
    "latlng": {
      "latitude": 14.619669790732132,
      "longitude": 120.98555428891945
    }
  },
  {
    "id": "PHGFSTI0000019k",
    "address": {
      "name": "David's Tea House - Sta. Cruz [Available for LONG-DISTANCE DELIVERY]"
    },
    "latlng": { "latitude": 14.60081561, "longitude": 120.9792872 }
  },
  {
    "id": "2-CYT1AKN3KFN1V2",
    "address": { "name": "Shakey's Pizza - SM San Lazaro" },
    "latlng": { "latitude": 14.6184894, "longitude": 120.9852252 }
  },
  {
    "id": "2-CZM3VGKZKCLDTE",
    "address": {
      "name": "Red Table - SM San Lazaro [Available for LONG-DISTANCE DELIVERY]"
    },
    "latlng": { "latitude": 14.6176851, "longitude": 120.986066675 }
  },
  {
    "id": "PHGFSTI0000017p",
    "address": {
      "name": "Kuya J's Restaurant - SM San Lazaro [Available for LONG-DISTANCE DELIVERY]"
    },
    "latlng": { "latitude": 14.618717660000002, "longitude": 120.985206 }
  },
  {
    "id": "2-C2JEE7UARFJYEN",
    "address": {
      "name": "Mister Kabab - GrabKitchen (Sampaloc) [Available for LONG-DISTANCE DELIVERY]"
    },
    "latlng": { "latitude": 14.6143335, "longitude": 120.9925847 }
  },
  {
    "id": "2-C23URRLCNJUTVT",
    "address": {
      "name": "Tutong's Laksa - Sampaloc [Available for LONG-DISTANCE DELIVERY]"
    },
    "latlng": { "latitude": 14.6097879, "longitude": 120.9862508 }
  },
  {
    "id": "2-C2MTUBWWRNKEAN",
    "address": {
      "name": "Wai Ying Fastfood - Tondo [Available for LONG-DISTANCE DELIVERY]"
    },
    "latlng": { "latitude": 14.6072429, "longitude": 120.978377 }
  },
  {
    "id": "PHGFSTI000004mr",
    "address": { "name": "Goldilocks - SM San Lazaro Foodshop" },
    "latlng": { "latitude": 14.6183767, "longitude": 120.985192 }
  },
  {
    "id": "PHGFSTI000001p1",
    "address": {
      "name": "Pho Hoa Vietnamese Noodle House - Lucky Chinatown Mall [Available for LONG-DISTANCE DELIVERY]"
    },
    "latlng": { "latitude": 14.6034077, "longitude": 120.9734002 }
  },
  {
    "id": "2-CYWKTUCFGY6EBE",
    "address": { "name": "Sisig Hooray - SM San Lazaro" },
    "latlng": { "latitude": 14.6181186, "longitude": 120.98551573 }
  },
  {
    "id": "2-CY6YR64EFE41PA",
    "address": {
      "name": "Inasal Chicken Bacolod - SM San Lazaro [Available for LONG-DISTANCE DELIVERY]"
    },
    "latlng": { "latitude": 14.6175648, "longitude": 120.98621754999999 }
  },
  {
    "id": "2-C2X2RNECVU4GEX",
    "address": {
      "name": "Ice Cream Scooper - Espa\u00f1a Boulevard [Available for LONG-DISTANCE DELIVERY]"
    },
    "latlng": { "latitude": 14.6117269, "longitude": 120.9953462 }
  },
  {
    "id": "2-C2MEV4L3GU33UE",
    "address": {
      "name": "Tapa King - Chinese General Hospital [Available for LONG-DISTANCE DELIVERY]"
    },
    "latlng": {
      "latitude": 14.625679999973585,
      "longitude": 120.98857781349608
    }
  },
  {
    "id": "2-CZKJC241LXA1TN",
    "address": { "name": "Food House by Madla - UST" },
    "latlng": { "latitude": 14.60785545410086, "longitude": 120.99240166666665 }
  },
  {
    "id": "2-C2MEPBJBLYU2DA",
    "address": {
      "name": "Dosirakuya Korean Street Food - Tondo [Available for LONG DISTANCE DELIVERY]"
    },
    "latlng": {
      "latitude": 14.610369618110482,
      "longitude": 120.97420072883261
    }
  },
  {
    "id": "2-CZAHEABBVTW2E2",
    "address": { "name": "Tim Hortons - SM San Lazaro" },
    "latlng": { "latitude": 14.619296461343763, "longitude": 120.9853582 }
  },
  {
    "id": "2-C23XVFLWGYCESA",
    "address": {
      "name": "Master Siomai - Espana Boulevard [Available for LONG-DISTANCE DELIVERY]"
    },
    "latlng": { "latitude": 14.61170187, "longitude": 120.995198 }
  },
  {
    "id": "2-C2UWRYJBTX4JSE",
    "address": { "name": "Big Scoop - P. Guevarra St" },
    "latlng": { "latitude": 14.6117504, "longitude": 120.9848649 }
  },
  {
    "id": "2-CZCUJA2GNTWTTJ",
    "address": {
      "name": "Tastes from the Greens - UST [Available for LONG-DISTANCE DELIVERY]"
    },
    "latlng": { "latitude": 14.612146549999999, "longitude": 120.9883315 }
  },
  {
    "id": "PHGFSTI0000019v",
    "address": {
      "name": "King Chef - Lucky Chinatown Mall (Seafood Restaurant)"
    },
    "latlng": { "latitude": 14.6032502, "longitude": 120.9733011475 }
  },
  {
    "id": "2-CZEUNCDVLRDFKE",
    "address": {
      "name": "Pancake House - SM San Lazaro [Available for LONG-DISTANCE DELIVERY]"
    },
    "latlng": { "latitude": 14.618261633333333, "longitude": 120.98536308 }
  },
  {
    "id": "2-CZJHLB6ZLXAAN2",
    "address": {
      "name": "Mann Hann - SM San Lazaro [Available for LONG-DISTANCE DELIVERY]"
    },
    "latlng": { "latitude": 14.617811342857143, "longitude": 120.9858458375 }
  },
  {
    "id": "2-CZEVR32XCT2AME",
    "address": {
      "name": "Cafe Mary Grace - SM San Lazaro [Available for LONG-DISTANCE DELIVERY]"
    },
    "latlng": { "latitude": 14.617914633333333, "longitude": 120.9856637 }
  },
  {
    "id": "2-CYNVTTMHVECZTJ",
    "address": {
      "name": "Hap Chan - SM San Lazaro [Available for LONG-DISTANCE DELIVERY]"
    },
    "latlng": { "latitude": 14.6176434, "longitude": 120.98609972857143 }
  },
  {
    "id": "2-C2JEGU22R4MAT2",
    "address": {
      "name": "Omakase - GrabKitchen (Sampaloc) [Available for LONG-DISTANCE DELIVERY]"
    },
    "latlng": { "latitude": 14.6143353, "longitude": 120.9925847 }
  },
  {
    "id": "2-C2JWTKWGAYUET2",
    "address": { "name": "Kinben Ramen - Maceda" },
    "latlng": { "latitude": 14.620124, "longitude": 120.992494 }
  },
  {
    "id": "2-CYKFJU5JTUT1AE",
    "address": { "name": "Boulangerie22 - Pacific Icon Residences" },
    "latlng": { "latitude": 14.6115292, "longitude": 120.988101 }
  },
  {
    "id": "2-C23DRCMKFE6YCT",
    "address": { "name": "Paluto Nga Po - Maceda Street" },
    "latlng": {
      "latitude": 14.619370780611604,
      "longitude": 120.99346505522533
    }
  },
  {
    "id": "PHGFSTI0000017u",
    "address": {
      "name": "Sbarro - SM San Lazaro [Available for LONG-DISTANCE DELIVERY]"
    },
    "latlng": { "latitude": 14.6179262, "longitude": 120.9856854 }
  },
  {
    "id": "2-CYKELGDULCBWTN",
    "address": {
      "name": "ProJuice - Castillas [Available for LONG-DISTANCE DELIVERY]"
    },
    "latlng": { "latitude": 14.613154, "longitude": 120.990576 }
  },
  {
    "id": "2-CY6YVVJJR8NXFE",
    "address": {
      "name": "Rarjap Sushi House - V. Concepcion Street [Available for LONG-DISTANCE DELIVERY]"
    },
    "latlng": { "latitude": 14.6122898, "longitude": 120.9881811 }
  },
  {
    "id": "2-CZEJHFWBAYWXTJ",
    "address": { "name": "Mammy's Kitchen - Gelinos Street" },
    "latlng": { "latitude": 14.6148228, "longitude": 120.986745 }
  },
  {
    "id": "2-CY3CGYMHELJWNX",
    "address": { "name": "Pizza Hut - SM San Lazaro" },
    "latlng": { "latitude": 14.6187372, "longitude": 120.98525154705882 }
  },
  {
    "id": "PHGFSTI00000126",
    "address": { "name": "Jatujak Thai Restaurant - SM San Lazaro" },
    "latlng": { "latitude": 14.61758356, "longitude": 120.9862531 }
  },
  {
    "id": "2-C2NUTFKWPFEHDA",
    "address": {
      "name": "Hideout Tea and Coffee House - UST [Available for LONG-DISTANCE DELIVERY]"
    },
    "latlng": {
      "latitude": 14.612301145437982,
      "longitude": 120.98814000000175
    }
  },
  {
    "id": "2-C23KRXJJGKAVCJ",
    "address": {
      "name": "Merienda by Pan de Manila - GrabKitchen (Sampaloc) [Available for LONG-DISTANCE DELIVERY]"
    },
    "latlng": { "latitude": 14.61449502, "longitude": 120.9924836 }
  },
  {
    "id": "2-C2BXEAW3LN4HGE",
    "address": { "name": "Savory Chicken PH - Masangkay" },
    "latlng": { "latitude": 14.610134884297521, "longitude": 120.9797647 }
  },
  {
    "id": "2-C2VABBVXNNNBSE",
    "address": {
      "name": "Ping Ping's Native Lechon - La Loma [Available for LONG-DISTANCE DELIVERY]"
    },
    "latlng": {
      "latitude": 14.627306478821382,
      "longitude": 120.99026000000043
    }
  },
  {
    "id": "2-C23JTNVBEKKEN2",
    "address": { "name": "Gong Cha - SM San Lazaro" },
    "latlng": { "latitude": 14.61785621, "longitude": 120.9854005 }
  },
  {
    "id": "2-C2CZUEEGV6BBDE",
    "address": {
      "name": "Cafe Perene - Benavidez Street [Available for LONG-DISTANCE DELIVERY]"
    },
    "latlng": { "latitude": 14.6070714, "longitude": 120.9783826 }
  },
  {
    "id": "2-C23KCYNANNDJNN",
    "address": { "name": "Zagu - Carriedo" },
    "latlng": {
      "latitude": 14.599014971754528,
      "longitude": 120.98156781349235
    }
  },
  {
    "id": "2-C22YEA6FLUATBA",
    "address": {
      "name": "Frozen Delights - Antipolo Street [Available for LONG-DISTANCE DELIVERY]"
    },
    "latlng": { "latitude": 14.619195, "longitude": 120.99054 }
  },
  {
    "id": "PHGFSTI00000145",
    "address": {
      "name": "Tokyo Tokyo - SM San Lazaro [Available for LONG-DISTANCE DELIVERY]"
    },
    "latlng": { "latitude": 14.6175713, "longitude": 120.98612815141676 }
  },
  {
    "id": "2-C2DDLZNZVTV2TA",
    "address": { "name": "CoCo Fresh Tea & Juice - GrabKitchen (Sampaloc)" },
    "latlng": { "latitude": 14.6143335, "longitude": 120.9925842 }
  },
  {
    "id": "PHGFSTI000000ym",
    "address": {
      "name": "Army Navy Burger + Burrito - UST Dapitan [Available for LONG-DISTANCE DELIVERY]"
    },
    "latlng": { "latitude": 14.6115019, "longitude": 120.9880575 }
  },
  {
    "id": "PHGFSTI000004jc",
    "address": {
      "name": "BonChon - SM City San Lazaro [Available for LONG-DISTANCE DELIVERY]"
    },
    "latlng": { "latitude": 14.6175894, "longitude": 120.98619020000001 }
  },
  {
    "id": "PHGFSTI0000019g",
    "address": {
      "name": "Classic Savory - SM San Lazaro [Available for LONG-DISTANCE DELIVERY]"
    },
    "latlng": { "latitude": 14.6176025, "longitude": 120.9863158 }
  },
  {
    "id": "PHGFSTI000001d0",
    "address": {
      "name": "S&R New York Style Pizza - Lucky Chinatown Mall [Available for LONG-DISTANCE DELIVERY]"
    },
    "latlng": {
      "latitude": 14.603515313353455,
      "longitude": 120.97409166395641
    }
  },
  {
    "id": "PHGFSTI0000029l",
    "address": {
      "name": "24 Chicken - P. Noval Dapitan [Available for LONG-DISTANCE DELIVERY]"
    },
    "latlng": { "latitude": 14.6097055, "longitude": 120.986619 }
  },
  {
    "id": "PHGFSTI000001ow",
    "address": {
      "name": "J.Co Donuts & Coffee - Lucky Chinatown Mall [Available for LONG-DISTANCE DELIVERY]"
    },
    "latlng": { "latitude": 14.6034786, "longitude": 120.97413444519042 }
  },
  {
    "id": "2-CYLXUABWCTX1WA",
    "address": {
      "name": "Yellow Cab Pizza - SM San Lazaro [Available for LONG-DISTANCE DELIVERY]"
    },
    "latlng": { "latitude": 14.6175634, "longitude": 120.98624878333334 }
  },
  {
    "id": "PHGFSTI000003ea",
    "address": {
      "name": "Subway - UST Campus [Available for LONG-DISTANCE DELIVERY]"
    },
    "latlng": { "latitude": 14.610537908571429, "longitude": 120.9902518 }
  },
  {
    "id": "2-CYX3ALEZHAAUHE",
    "address": {
      "name": "Lola Nena's Pichi Pichi - Espana Boulevard [Available for LONG-DISTANCE DELIVERY]"
    },
    "latlng": { "latitude": 14.60594795, "longitude": 120.9885574 }
  },
  {
    "id": "2-C2JECYXXKF2ATA",
    "address": {
      "name": "Happilee Korean Kitchen - GrabKitchen (Sampaloc) [Available for LONG-DISTANCE DELIVERY]"
    },
    "latlng": { "latitude": 14.6143448, "longitude": 120.9925752 }
  },
  {
    "id": "2-CYJ3JKLXKCNVG2",
    "address": {
      "name": "Buffalo's Wings N' Things - SM San Lazaro [Available for LONG-DISTANCE DELIVERY]"
    },
    "latlng": { "latitude": 14.6177683, "longitude": 120.98586350679396 }
  },
  {
    "id": "2-CYKZLA4TT3JVTA",
    "address": {
      "name": "Max's Restaurant - SM San Lazaro [Available for LONG-DISTANCE DELIVERY]"
    },
    "latlng": { "latitude": 14.6176326, "longitude": 120.98607781818181 }
  },
  {
    "id": "2-C2BFLTLFEU21GE",
    "address": {
      "name": "Cara Mia Cakes & Gelato - SM San Lazaro [Available for LONG-DISTANCE DELIVERY]"
    },
    "latlng": { "latitude": 14.6186689, "longitude": 120.98527427999998 }
  },
  {
    "id": "2-C2LHPF4FGTMHL6",
    "address": {
      "name": "The Aristocrat Restaurant - SM San Lazaro [Available for LONG-DISTANCE DELIVERY]"
    },
    "latlng": { "latitude": 14.617857, "longitude": 120.985417 }
  },
  {
    "id": "2-C23ZNBUFGADZTN",
    "address": { "name": "Dadudz Unli Wings - St. Thomas Square" },
    "latlng": { "latitude": 14.60562305, "longitude": 120.988576 }
  },
  {
    "id": "2-C2U2WGKAVKXCTE",
    "address": { "name": "Conti's Bakeshop and Restaurant - SM San Lazaro" },
    "latlng": { "latitude": 14.61780108, "longitude": 120.9853594 }
  },
  {
    "id": "2-C2AYFBLWEA4ZRA",
    "address": {
      "name": "Conti's Bakeshop - Lucky Chinatown Mall [Available for LONG-DISTANCE DELIVERY]"
    },
    "latlng": { "latitude": 14.60304336978875, "longitude": 120.97393467043344 }
  },
  {
    "id": "2-C2WFT2UYEUBDCX",
    "address": {
      "name": "Caution Bistro - Manila [Available for LONG-DISTANCE DELIVERY]"
    },
    "latlng": { "latitude": 14.614305, "longitude": 120.990737 }
  },
  {
    "id": "2-C2XERKUYFBEWEA",
    "address": {
      "name": "Big Al's Cookie Jar - GrabKitchen (Sampaloc) [Available for LONG-DISTANCE DELIVERY]"
    },
    "latlng": { "latitude": 14.6143335, "longitude": 120.9925847 }
  },
  {
    "id": "2-CY3VAZCEDGNEVA",
    "address": {
      "name": "Pepper Lunch Express - Lucky Chinatown [Available for LONG-DISTANCE DELIVERY]"
    },
    "latlng": { "latitude": 14.6029055, "longitude": 120.9738317 }
  },
  {
    "id": "2-CY5HE8BXA222E2",
    "address": {
      "name": "Hawker Chan - SM San Lazaro [Available for LONG-DISTANCE DELIVERY]"
    },
    "latlng": { "latitude": 14.6188394, "longitude": 120.9853949 }
  },
  {
    "id": "2-CZNVAN6KLBT1L2",
    "address": { "name": "Starbucks - Metropolitan Medical Center" },
    "latlng": { "latitude": 14.6095408, "longitude": 120.9786337 }
  },
  {
    "id": "AWhenmIUkk5cOZVWu4Y-",
    "address": { "name": "Chooks To Go - Laon-Laan Street Sampaloc" },
    "latlng": { "latitude": 14.61317095, "longitude": 120.9879167 }
  },
  {
    "id": "PHGFSTI000002cu",
    "address": {
      "name": "Al Jograts - V. Concepcion [Available for LONG-DISTANCE DELIVERY]"
    },
    "latlng": { "latitude": 14.6123178, "longitude": 120.9880759076923 }
  },
  {
    "id": "2-C2J3BF3DSA2YRX",
    "address": {
      "name": "Boodle Inasal x Happy Thirstday - Sampaloc [Available for LONG-DISTANCE DELIVERY]"
    },
    "latlng": { "latitude": 14.6071574, "longitude": 120.9876869 }
  },
  {
    "id": "2-C2K3TBCTV7AHCX",
    "address": {
      "name": "Banapple - SM San Lazaro [Available for LONG-DISTANCE DELIVERY]"
    },
    "latlng": { "latitude": 14.618972, "longitude": 120.985263 }
  },
  {
    "id": "2-C2JTEVCUFFAYA6",
    "address": {
      "name": "GrabKitchen - Mix and Match (Sampaloc) [Available for LONG-DISTANCE DELIVERY]"
    },
    "latlng": { "latitude": 14.6143302, "longitude": 120.9925804 }
  },
  {
    "id": "2-CZN2FAW1TRJ2N2",
    "address": {
      "name": "Cha Tuk Chak - Cloud Kitchen San Lazaro [Available for LONG-DISTANCE DELIVERY]"
    },
    "latlng": {
      "latitude": 14.619669790732132,
      "longitude": 120.98555428891945
    }
  },
  {
    "id": "PHGFSTI0000019k",
    "address": {
      "name": "David's Tea House - Sta. Cruz [Available for LONG-DISTANCE DELIVERY]"
    },
    "latlng": { "latitude": 14.60081561, "longitude": 120.9792872 }
  },
  {
    "id": "2-CYT1AKN3KFN1V2",
    "address": { "name": "Shakey's Pizza - SM San Lazaro" },
    "latlng": { "latitude": 14.6184894, "longitude": 120.9852252 }
  },
  {
    "id": "2-CZM3VGKZKCLDTE",
    "address": {
      "name": "Red Table - SM San Lazaro [Available for LONG-DISTANCE DELIVERY]"
    },
    "latlng": { "latitude": 14.6176851, "longitude": 120.986066675 }
  },
  {
    "id": "PHGFSTI0000017p",
    "address": {
      "name": "Kuya J's Restaurant - SM San Lazaro [Available for LONG-DISTANCE DELIVERY]"
    },
    "latlng": { "latitude": 14.618717660000002, "longitude": 120.985206 }
  },
  {
    "id": "2-C2JEE7UARFJYEN",
    "address": {
      "name": "Mister Kabab - GrabKitchen (Sampaloc) [Available for LONG-DISTANCE DELIVERY]"
    },
    "latlng": { "latitude": 14.6143335, "longitude": 120.9925847 }
  },
  {
    "id": "2-C23URRLCNJUTVT",
    "address": {
      "name": "Tutong's Laksa - Sampaloc [Available for LONG-DISTANCE DELIVERY]"
    },
    "latlng": { "latitude": 14.6097879, "longitude": 120.9862508 }
  },
  {
    "id": "2-C2MTUBWWRNKEAN",
    "address": {
      "name": "Wai Ying Fastfood - Tondo [Available for LONG-DISTANCE DELIVERY]"
    },
    "latlng": { "latitude": 14.6072429, "longitude": 120.978377 }
  },
  {
    "id": "PHGFSTI000004mr",
    "address": { "name": "Goldilocks - SM San Lazaro Foodshop" },
    "latlng": { "latitude": 14.6183767, "longitude": 120.985192 }
  },
  {
    "id": "PHGFSTI000001p1",
    "address": {
      "name": "Pho Hoa Vietnamese Noodle House - Lucky Chinatown Mall [Available for LONG-DISTANCE DELIVERY]"
    },
    "latlng": { "latitude": 14.6034077, "longitude": 120.9734002 }
  },
  {
    "id": "2-CYWKTUCFGY6EBE",
    "address": { "name": "Sisig Hooray - SM San Lazaro" },
    "latlng": { "latitude": 14.6181186, "longitude": 120.98551573 }
  },
  {
    "id": "2-CY6YR64EFE41PA",
    "address": {
      "name": "Inasal Chicken Bacolod - SM San Lazaro [Available for LONG-DISTANCE DELIVERY]"
    },
    "latlng": { "latitude": 14.6175648, "longitude": 120.98621754999999 }
  },
  {
    "id": "2-C2X2RNECVU4GEX",
    "address": {
      "name": "Ice Cream Scooper - Espa\u00f1a Boulevard [Available for LONG-DISTANCE DELIVERY]"
    },
    "latlng": { "latitude": 14.6117269, "longitude": 120.9953462 }
  },
  {
    "id": "2-C2MEV4L3GU33UE",
    "address": {
      "name": "Tapa King - Chinese General Hospital [Available for LONG-DISTANCE DELIVERY]"
    },
    "latlng": {
      "latitude": 14.625679999973585,
      "longitude": 120.98857781349608
    }
  },
  {
    "id": "2-CZKJC241LXA1TN",
    "address": { "name": "Food House by Madla - UST" },
    "latlng": { "latitude": 14.60785545410086, "longitude": 120.99240166666665 }
  },
  {
    "id": "2-C2MEPBJBLYU2DA",
    "address": {
      "name": "Dosirakuya Korean Street Food - Tondo [Available for LONG DISTANCE DELIVERY]"
    },
    "latlng": {
      "latitude": 14.610369618110482,
      "longitude": 120.97420072883261
    }
  },
  {
    "id": "2-CZAHEABBVTW2E2",
    "address": { "name": "Tim Hortons - SM San Lazaro" },
    "latlng": { "latitude": 14.619296461343763, "longitude": 120.9853582 }
  },
  {
    "id": "2-C23XVFLWGYCESA",
    "address": {
      "name": "Master Siomai - Espana Boulevard [Available for LONG-DISTANCE DELIVERY]"
    },
    "latlng": { "latitude": 14.61170187, "longitude": 120.995198 }
  },
  {
    "id": "2-C2UWRYJBTX4JSE",
    "address": { "name": "Big Scoop - P. Guevarra St" },
    "latlng": { "latitude": 14.6117504, "longitude": 120.9848649 }
  },
  {
    "id": "2-CZCUJA2GNTWTTJ",
    "address": {
      "name": "Tastes from the Greens - UST [Available for LONG-DISTANCE DELIVERY]"
    },
    "latlng": { "latitude": 14.612146549999999, "longitude": 120.9883315 }
  },
  {
    "id": "PHGFSTI0000019v",
    "address": {
      "name": "King Chef - Lucky Chinatown Mall (Seafood Restaurant)"
    },
    "latlng": { "latitude": 14.6032502, "longitude": 120.9733011475 }
  },
  {
    "id": "2-CZEUNCDVLRDFKE",
    "address": {
      "name": "Pancake House - SM San Lazaro [Available for LONG-DISTANCE DELIVERY]"
    },
    "latlng": { "latitude": 14.618261633333333, "longitude": 120.98536308 }
  },
  {
    "id": "2-CZJHLB6ZLXAAN2",
    "address": {
      "name": "Mann Hann - SM San Lazaro [Available for LONG-DISTANCE DELIVERY]"
    },
    "latlng": { "latitude": 14.617811342857143, "longitude": 120.9858458375 }
  },
  {
    "id": "2-CZEVR32XCT2AME",
    "address": {
      "name": "Cafe Mary Grace - SM San Lazaro [Available for LONG-DISTANCE DELIVERY]"
    },
    "latlng": { "latitude": 14.617914633333333, "longitude": 120.9856637 }
  },
  {
    "id": "2-CYNVTTMHVECZTJ",
    "address": {
      "name": "Hap Chan - SM San Lazaro [Available for LONG-DISTANCE DELIVERY]"
    },
    "latlng": { "latitude": 14.6176434, "longitude": 120.98609972857143 }
  },
  {
    "id": "2-C2JEGU22R4MAT2",
    "address": {
      "name": "Omakase - GrabKitchen (Sampaloc) [Available for LONG-DISTANCE DELIVERY]"
    },
    "latlng": { "latitude": 14.6143353, "longitude": 120.9925847 }
  },
  {
    "id": "2-C2JWTKWGAYUET2",
    "address": { "name": "Kinben Ramen - Maceda" },
    "latlng": { "latitude": 14.620124, "longitude": 120.992494 }
  },
  {
    "id": "2-CYKFJU5JTUT1AE",
    "address": { "name": "Boulangerie22 - Pacific Icon Residences" },
    "latlng": { "latitude": 14.6115292, "longitude": 120.988101 }
  },
  {
    "id": "2-C23DRCMKFE6YCT",
    "address": { "name": "Paluto Nga Po - Maceda Street" },
    "latlng": {
      "latitude": 14.619370780611604,
      "longitude": 120.99346505522533
    }
  },
  {
    "id": "PHGFSTI0000017u",
    "address": {
      "name": "Sbarro - SM San Lazaro [Available for LONG-DISTANCE DELIVERY]"
    },
    "latlng": { "latitude": 14.6179262, "longitude": 120.9856854 }
  },
  {
    "id": "2-CYKELGDULCBWTN",
    "address": {
      "name": "ProJuice - Castillas [Available for LONG-DISTANCE DELIVERY]"
    },
    "latlng": { "latitude": 14.613154, "longitude": 120.990576 }
  },
  {
    "id": "2-CY6YVVJJR8NXFE",
    "address": {
      "name": "Rarjap Sushi House - V. Concepcion Street [Available for LONG-DISTANCE DELIVERY]"
    },
    "latlng": { "latitude": 14.6122898, "longitude": 120.9881811 }
  },
  {
    "id": "2-CZEJHFWBAYWXTJ",
    "address": { "name": "Mammy's Kitchen - Gelinos Street" },
    "latlng": { "latitude": 14.6148228, "longitude": 120.986745 }
  },
  {
    "id": "2-CY3CGYMHELJWNX",
    "address": { "name": "Pizza Hut - SM San Lazaro" },
    "latlng": { "latitude": 14.6187372, "longitude": 120.98525154705882 }
  },
  {
    "id": "PHGFSTI00000126",
    "address": { "name": "Jatujak Thai Restaurant - SM San Lazaro" },
    "latlng": { "latitude": 14.61758356, "longitude": 120.9862531 }
  },
  {
    "id": "2-C2NUTFKWPFEHDA",
    "address": {
      "name": "Hideout Tea and Coffee House - UST [Available for LONG-DISTANCE DELIVERY]"
    },
    "latlng": {
      "latitude": 14.612301145437982,
      "longitude": 120.98814000000175
    }
  },
  {
    "id": "2-C23KRXJJGKAVCJ",
    "address": {
      "name": "Merienda by Pan de Manila - GrabKitchen (Sampaloc) [Available for LONG-DISTANCE DELIVERY]"
    },
    "latlng": { "latitude": 14.61449502, "longitude": 120.9924836 }
  },
  {
    "id": "2-C2BXEAW3LN4HGE",
    "address": { "name": "Savory Chicken PH - Masangkay" },
    "latlng": { "latitude": 14.610134884297521, "longitude": 120.9797647 }
  },
  {
    "id": "2-C2VABBVXNNNBSE",
    "address": {
      "name": "Ping Ping's Native Lechon - La Loma [Available for LONG-DISTANCE DELIVERY]"
    },
    "latlng": {
      "latitude": 14.627306478821382,
      "longitude": 120.99026000000043
    }
  },
  {
    "id": "2-C23JTNVBEKKEN2",
    "address": { "name": "Gong Cha - SM San Lazaro" },
    "latlng": { "latitude": 14.61785621, "longitude": 120.9854005 }
  },
  {
    "id": "2-C2CZUEEGV6BBDE",
    "address": {
      "name": "Cafe Perene - Benavidez Street [Available for LONG-DISTANCE DELIVERY]"
    },
    "latlng": { "latitude": 14.6070714, "longitude": 120.9783826 }
  },
  {
    "id": "2-C23KCYNANNDJNN",
    "address": { "name": "Zagu - Carriedo" },
    "latlng": {
      "latitude": 14.599014971754528,
      "longitude": 120.98156781349235
    }
  },
  {
    "id": "2-C22YEA6FLUATBA",
    "address": {
      "name": "Frozen Delights - Antipolo Street [Available for LONG-DISTANCE DELIVERY]"
    },
    "latlng": { "latitude": 14.619195, "longitude": 120.99054 }
  },
  {
    "id": "2-CZJTTTDYJ6BHLX",
    "address": {
      "name": "Mang Samgyupsal - UST Dapitan [Available for LONG-DISTANCE DELIVERY]"
    },
    "latlng": { "latitude": 14.61208658, "longitude": 120.98875808791666 }
  },
  {
    "id": "2-C2EHAFWFTX2WVJ",
    "address": {
      "name": "Sio Cha \u5c0f\u5403 - Asian Cuisine Masangkay Street"
    },
    "latlng": { "latitude": 14.6089106, "longitude": 120.9790354 }
  },
  {
    "id": "2-CZBJRNBUTACDCT",
    "address": {
      "name": "Romantic Baboy - San Lazaro [Available for LONG-DISTANCE DELIVERY]"
    },
    "latlng": { "latitude": 14.6193662, "longitude": 120.985519 }
  },
  {
    "id": "2-C2XJLBWDVT4EE2",
    "address": {
      "name": "Carol's Chicken and Lechon Belly - Binondo [Available for LONG-DISTANCE DELIVERY]"
    },
    "latlng": { "latitude": 14.60679, "longitude": 120.97779 }
  },
  {
    "id": "PHGFSTI000001aj",
    "address": {
      "name": "Hukad - SM San Lazaro [Available for LONG-DISTANCE DELIVERY]"
    },
    "latlng": { "latitude": 14.6187552, "longitude": 120.98534148 }
  },
  {
    "id": "2-C2NXDB2GJJ5JET",
    "address": {
      "name": "President Grand Palace Resturant - Binondo [Available for LONG-DISTANCE DELIVERY]"
    },
    "latlng": { "latitude": 14.601248470666576, "longitude": 120.9763685423294 }
  },
  {
    "id": "2-C2T3ET2ULE5FDE",
    "address": { "name": "Tinapayan Festival Bakeshoppe - Dapitan Street" },
    "latlng": {
      "latitude": 14.614121145180505,
      "longitude": 120.99100072883544
    }
  },
  {
    "id": "2-CZN1ANXFFBAZPA",
    "address": { "name": "Mila's Lechon - La Loma" },
    "latlng": { "latitude": 14.6259847, "longitude": 120.99026166666665 }
  },
  {
    "id": "PHGFSTI00000145",
    "address": {
      "name": "Tokyo Tokyo - SM San Lazaro [Available for LONG-DISTANCE DELIVERY]"
    },
    "latlng": { "latitude": 14.6175713, "longitude": 120.98612815141676 }
  },
  {
    "id": "2-C2DDLZNZVTV2TA",
    "address": { "name": "CoCo Fresh Tea & Juice - GrabKitchen (Sampaloc)" },
    "latlng": { "latitude": 14.6143335, "longitude": 120.9925842 }
  },
  {
    "id": "PHGFSTI000000ym",
    "address": {
      "name": "Army Navy Burger + Burrito - UST Dapitan [Available for LONG-DISTANCE DELIVERY]"
    },
    "latlng": { "latitude": 14.6115019, "longitude": 120.9880575 }
  },
  {
    "id": "PHGFSTI000004jc",
    "address": {
      "name": "BonChon - SM City San Lazaro [Available for LONG-DISTANCE DELIVERY]"
    },
    "latlng": { "latitude": 14.6175894, "longitude": 120.98619020000001 }
  },
  {
    "id": "PHGFSTI0000019g",
    "address": {
      "name": "Classic Savory - SM San Lazaro [Available for LONG-DISTANCE DELIVERY]"
    },
    "latlng": { "latitude": 14.6176025, "longitude": 120.9863158 }
  },
  {
    "id": "PHGFSTI000001d0",
    "address": {
      "name": "S&R New York Style Pizza - Lucky Chinatown Mall [Available for LONG-DISTANCE DELIVERY]"
    },
    "latlng": {
      "latitude": 14.603515313353455,
      "longitude": 120.97409166395641
    }
  },
  {
    "id": "PHGFSTI0000029l",
    "address": {
      "name": "24 Chicken - P. Noval Dapitan [Available for LONG-DISTANCE DELIVERY]"
    },
    "latlng": { "latitude": 14.6097055, "longitude": 120.986619 }
  },
  {
    "id": "PHGFSTI000001ow",
    "address": {
      "name": "J.Co Donuts & Coffee - Lucky Chinatown Mall [Available for LONG-DISTANCE DELIVERY]"
    },
    "latlng": { "latitude": 14.6034786, "longitude": 120.97413444519042 }
  },
  {
    "id": "2-CYLXUABWCTX1WA",
    "address": {
      "name": "Yellow Cab Pizza - SM San Lazaro [Available for LONG-DISTANCE DELIVERY]"
    },
    "latlng": { "latitude": 14.6175634, "longitude": 120.98624878333334 }
  },
  {
    "id": "PHGFSTI000003ea",
    "address": {
      "name": "Subway - UST Campus [Available for LONG-DISTANCE DELIVERY]"
    },
    "latlng": { "latitude": 14.610537908571429, "longitude": 120.9902518 }
  },
  {
    "id": "2-CYX3ALEZHAAUHE",
    "address": {
      "name": "Lola Nena's Pichi Pichi - Espana Boulevard [Available for LONG-DISTANCE DELIVERY]"
    },
    "latlng": { "latitude": 14.60594795, "longitude": 120.9885574 }
  },
  {
    "id": "2-C2JECYXXKF2ATA",
    "address": {
      "name": "Happilee Korean Kitchen - GrabKitchen (Sampaloc) [Available for LONG-DISTANCE DELIVERY]"
    },
    "latlng": { "latitude": 14.6143448, "longitude": 120.9925752 }
  },
  {
    "id": "2-CYJ3JKLXKCNVG2",
    "address": {
      "name": "Buffalo's Wings N' Things - SM San Lazaro [Available for LONG-DISTANCE DELIVERY]"
    },
    "latlng": { "latitude": 14.6177683, "longitude": 120.98586350679396 }
  },
  {
    "id": "2-CYKZLA4TT3JVTA",
    "address": {
      "name": "Max's Restaurant - SM San Lazaro [Available for LONG-DISTANCE DELIVERY]"
    },
    "latlng": { "latitude": 14.6176326, "longitude": 120.98607781818181 }
  },
  {
    "id": "2-C2BFLTLFEU21GE",
    "address": {
      "name": "Cara Mia Cakes & Gelato - SM San Lazaro [Available for LONG-DISTANCE DELIVERY]"
    },
    "latlng": { "latitude": 14.6186689, "longitude": 120.98527427999998 }
  },